header: 
  seq: 1131
  stamp: 
    secs: 1584993420
    nsecs: 407956935
  frame_id: "imu"
frame_id: ''
accelerometers: 
  x: -0.0379259744432
  y: 0.0219139608231
  z: -9.80475731812
gyroscopes: 
  x: -0.00442183902487
  y: -0.000740767340176
  z: -0.00029798556352
magnetometers: 
  x: 0.0797962024808
  y: -0.332422465086
  z: 0.554407894611
---
header: 
  seq: 1132
  stamp: 
    secs: 1584993420
    nsecs: 408066179
  frame_id: "imu"
frame_id: ''
accelerometers: 
  x: -0.0317195529846
  y: 0.0219209385531
  z: -9.80410323813
gyroscopes: 
  x: -0.00427578855306
  y: -0.000633653718978
  z: -0.000544091453776
magnetometers: 
  x: 0.0799345523119
  y: -0.332298755646
  z: 0.554124951363
---
header: 
  seq: 1133
  stamp: 
    secs: 1584993420
    nsecs: 413778781
  frame_id: "imu"
frame_id: ''
accelerometers: 
  x: -0.0303427984384
  y: 0.0203849954068
  z: -9.80557798685
gyroscopes: 
  x: -0.00493030715734
  y: -0.000529956130777
  z: -8.39815475047e-05
magnetometers: 
  x: 0.0798117816448
  y: -0.332035332918
  z: 0.55418586731
---
header: 
  seq: 1134
  stamp: 
    secs: 1584993420
    nsecs: 425761747
  frame_id: "imu"
frame_id: ''
accelerometers: 
  x: -0.0339859726798
  y: 0.0156056190681
  z: -9.80691537294
gyroscopes: 
  x: -0.0040792748332
  y: -0.000480394926853
  z: 0.000119642558275
magnetometers: 
  x: 0.0799255594611
  y: -0.332124084234
  z: 0.554253339767
---
header: 
  seq: 1135
  stamp: 
    secs: 1584993420
    nsecs: 437748139
  frame_id: "imu"
frame_id: ''
accelerometers: 
  x: -0.0375341758138
  y: 0.0101415369845
  z: -9.8095445524
gyroscopes: 
  x: -0.00439238268882
  y: -0.00072135933442
  z: 0.00102411163971
magnetometers: 
  x: 0.0800097435713
  y: -0.332090079784
  z: 0.554638385773
---
header: 
  seq: 1136
  stamp: 
    secs: 1584993420
    nsecs: 443694461
  frame_id: "imu"
frame_id: ''
accelerometers: 
  x: -0.0417298351221
  y: 0.0101313044265
  z: -9.81106547835
gyroscopes: 
  x: -0.00433231377974
  y: -0.00125025189482
  z: 0.000420368596679
magnetometers: 
  x: 0.0801317691803
  y: -0.331727445126
  z: 0.554412543774
---
header: 
  seq: 1137
  stamp: 
    secs: 1584993420
    nsecs: 455862310
  frame_id: "imu"
frame_id: ''
accelerometers: 
  x: -0.040900124566
  y: 0.0136466247792
  z: -9.81062124172
gyroscopes: 
  x: -0.00449503026903
  y: -0.000895735342056
  z: -0.00075143732829
magnetometers: 
  x: 0.0799261406064
  y: -0.331813901663
  z: 0.554462015629
---
header: 
  seq: 1138
  stamp: 
    secs: 1584993420
    nsecs: 467793387
  frame_id: "imu"
frame_id: ''
accelerometers: 
  x: -0.0416740726471
  y: 0.0208326615425
  z: -9.80657751929
gyroscopes: 
  x: -0.00448966445401
  y: -0.000819088192657
  z: -0.0012397574028
magnetometers: 
  x: 0.080489680171
  y: -0.332405000925
  z: 0.554400324821
---
header: 
  seq: 1139
  stamp: 
    secs: 1584993420
    nsecs: 473856589
  frame_id: "imu"
frame_id: ''
accelerometers: 
  x: -0.0381134575561
  y: 0.0251889798888
  z: -9.80399977775
gyroscopes: 
  x: -0.0050453315489
  y: -0.00114308472257
  z: -0.000747555284761
magnetometers: 
  x: 0.0801893696189
  y: -0.332618147135
  z: 0.554475545883
---
header: 
  seq: 1140
  stamp: 
    secs: 1584993420
    nsecs: 485868694
  frame_id: "imu"
frame_id: ''
accelerometers: 
  x: -0.0349752485786
  y: 0.0234807671818
  z: -9.80499814114
gyroscopes: 
  x: -0.00488032912835
  y: -0.000770584505517
  z: -0.000248064403422
magnetometers: 
  x: 0.0802103579044
  y: -0.332492858171
  z: 0.554058969021
---
header: 
  seq: 1141
  stamp: 
    secs: 1584993420
    nsecs: 497742857
  frame_id: "imu"
frame_id: ''
accelerometers: 
  x: -0.0325970048227
  y: 0.0235959316938
  z: -9.80672949498
gyroscopes: 
  x: -0.00591428158805
  y: -0.000200678987312
  z: -0.000569398049265
magnetometers: 
  x: 0.0802787542343
  y: -0.332612633705
  z: 0.554600477219
---
header: 
  seq: 1142
  stamp: 
    secs: 1584993420
    nsecs: 503765111
  frame_id: "imu"
frame_id: ''
accelerometers: 
  x: -0.0306888993292
  y: 0.0209950992624
  z: -9.81167338112
gyroscopes: 
  x: -0.00521728768945
  y: -0.0015127370134
  z: -0.000630331691355
magnetometers: 
  x: 0.0802753344178
  y: -0.331923753023
  z: 0.554531812668
---
header: 
  seq: 1143
  stamp: 
    secs: 1584993420
    nsecs: 515856911
  frame_id: "imu"
frame_id: ''
accelerometers: 
  x: -0.0343189149782
  y: 0.0162401004547
  z: -9.81027052858
gyroscopes: 
  x: -0.00427692988887
  y: -0.000181732611964
  z: 0.0003212558222
magnetometers: 
  x: 0.0805786922574
  y: -0.331813961267
  z: 0.554414272308
---
header: 
  seq: 1144
  stamp: 
    secs: 1584993420
    nsecs: 527834140
  frame_id: "imu"
frame_id: ''
accelerometers: 
  x: -0.0402930346514
  y: 0.0123668437845
  z: -9.80743092124
gyroscopes: 
  x: -0.00474128127098
  y: -9.55205468927e-05
  z: 9.02137253433e-06
magnetometers: 
  x: 0.0798718035221
  y: -0.331318110228
  z: 0.554250836372
---
header: 
  seq: 1145
  stamp: 
    secs: 1584993420
    nsecs: 533801564
  frame_id: "imu"
frame_id: ''
accelerometers: 
  x: -0.0419515287485
  y: 0.00966418352998
  z: -9.80703695349
gyroscopes: 
  x: -0.00496712001041
  y: -0.00048107537441
  z: 8.43999441713e-06
magnetometers: 
  x: 0.0799987316132
  y: -0.331705778837
  z: 0.554146289825
---
header: 
  seq: 1146
  stamp: 
    secs: 1584993420
    nsecs: 545863921
  frame_id: "imu"
frame_id: ''
accelerometers: 
  x: -0.0394676395108
  y: 0.0111153698606
  z: -9.80316858763
gyroscopes: 
  x: -0.00404758006334
  y: -0.000391044217395
  z: 3.73257644242e-05
magnetometers: 
  x: 0.0803576484323
  y: -0.331914126873
  z: 0.554091930389
---
header: 
  seq: 1147
  stamp: 
    secs: 1584993420
    nsecs: 557873475
  frame_id: "imu"
frame_id: ''
accelerometers: 
  x: -0.0373100367853
  y: 0.0123944887016
  z: -9.80466204105
gyroscopes: 
  x: -0.0043624821119
  y: -0.000399984652176
  z: -0.000111923160148
magnetometers: 
  x: 0.080383785069
  y: -0.332325220108
  z: 0.553950309753
---
header: 
  seq: 1148
  stamp: 
    secs: 1584993420
    nsecs: 563866323
  frame_id: "imu"
frame_id: ''
accelerometers: 
  x: -0.0347766024677
  y: 0.0152995111194
  z: -9.80717139353
gyroscopes: 
  x: -0.00504780095071
  y: 0.000393641297705
  z: -0.000643641804345
magnetometers: 
  x: 0.0811515897512
  y: -0.332626312971
  z: 0.553969621658
---
header: 
  seq: 1149
  stamp: 
    secs: 1584993420
    nsecs: 575872987
  frame_id: "imu"
frame_id: ''
accelerometers: 
  x: -0.0312091649102
  y: 0.0191174163066
  z: -9.80903484931
gyroscopes: 
  x: -0.00451403250918
  y: -0.000726405123714
  z: -0.000145330704981
magnetometers: 
  x: 0.081263795495
  y: -0.332758486271
  z: 0.553767204285
---
header: 
  seq: 1150
  stamp: 
    secs: 1584993420
    nsecs: 587870016
  frame_id: "imu"
frame_id: ''
accelerometers: 
  x: -0.0303982503861
  y: 0.0185852502252
  z: -9.80851228674
gyroscopes: 
  x: -0.00543765863404
  y: -0.00156468490604
  z: -0.00108972867019
magnetometers: 
  x: 0.0808461606503
  y: -0.332567244768
  z: 0.553752958775
---
header: 
  seq: 1151
  stamp: 
    secs: 1584993420
    nsecs: 593800729
  frame_id: "imu"
frame_id: ''
accelerometers: 
  x: -0.0324925763338
  y: 0.0173932182959
  z: -9.81003905792
gyroscopes: 
  x: -0.00356430467218
  y: -0.00147605582606
  z: -0.00100710638799
magnetometers: 
  x: 0.0800892412663
  y: -0.332511484623
  z: 0.554008960724
---
header: 
  seq: 1152
  stamp: 
    secs: 1584993420
    nsecs: 605862116
  frame_id: "imu"
frame_id: ''
accelerometers: 
  x: -0.0364767231997
  y: 0.013711150516
  z: -9.80997592955
gyroscopes: 
  x: -0.0035208738409
  y: -0.00103941152338
  z: -0.000505279866047
magnetometers: 
  x: 0.080219976604
  y: -0.332311928272
  z: 0.553930640221
---
header: 
  seq: 1153
  stamp: 
    secs: 1584993420
    nsecs: 617870282
  frame_id: "imu"
frame_id: ''
accelerometers: 
  x: -0.0384623805916
  y: 0.0148715577561
  z: -9.80809260002
gyroscopes: 
  x: -0.00461692735553
  y: -0.000536227598786
  z: 0.000128508414491
magnetometers: 
  x: 0.0796717107296
  y: -0.331743180752
  z: 0.553997933865
---
header: 
  seq: 1154
  stamp: 
    secs: 1584993420
    nsecs: 629859253
  frame_id: "imu"
frame_id: ''
accelerometers: 
  x: -0.0440120095088
  y: 0.0119401233971
  z: -9.8064471709
gyroscopes: 
  x: -0.00484699802473
  y: 0.000191407511011
  z: 1.1310519767e-05
magnetometers: 
  x: 0.0796443596482
  y: -0.331617087126
  z: 0.55388969183
---
header: 
  seq: 1155
  stamp: 
    secs: 1584993420
    nsecs: 635870128
  frame_id: "imu"
frame_id: ''
accelerometers: 
  x: -0.0456824406388
  y: 0.0116811265427
  z: -9.80594272851
gyroscopes: 
  x: -0.00441848766059
  y: 0.000206194643397
  z: -0.000564797141124
magnetometers: 
  x: 0.0801109075546
  y: -0.33197915554
  z: 0.553969323635
---
header: 
  seq: 1156
  stamp: 
    secs: 1584993420
    nsecs: 647863201
  frame_id: "imu"
frame_id: ''
accelerometers: 
  x: -0.0416967822358
  y: 0.012711000455
  z: -9.80594798921
gyroscopes: 
  x: -0.00480617722496
  y: -0.000136999398819
  z: -0.000493578903843
magnetometers: 
  x: 0.0801257267594
  y: -0.332539618015
  z: 0.553735256195
---
header: 
  seq: 1157
  stamp: 
    secs: 1584993420
    nsecs: 659849496
  frame_id: "imu"
frame_id: ''
accelerometers: 
  x: -0.0368078936661
  y: 0.0177767970863
  z: -9.80673300211
gyroscopes: 
  x: -0.00376832857728
  y: -0.00129776005633
  z: -8.61218868522e-05
magnetometers: 
  x: 0.0801127776504
  y: -0.332409799099
  z: 0.553897857666
---
header: 
  seq: 1158
  stamp: 
    secs: 1584993420
    nsecs: 665800349
  frame_id: "imu"
frame_id: ''
accelerometers: 
  x: -0.0338373990885
  y: 0.0221681250971
  z: -9.80780384621
gyroscopes: 
  x: -0.00484797405079
  y: -0.000428329745773
  z: -6.28920315648e-06
magnetometers: 
  x: 0.0810078606009
  y: -0.33200737834
  z: 0.553964018822
---
header: 
  seq: 1159
  stamp: 
    secs: 1584993420
    nsecs: 677837003
  frame_id: "imu"
frame_id: ''
accelerometers: 
  x: -0.0309625309221
  y: 0.0213959465647
  z: -9.81158336475
gyroscopes: 
  x: -0.00486350478604
  y: -0.00018655238091
  z: -0.000229896453675
magnetometers: 
  x: 0.0805049836636
  y: -0.33148881793
  z: 0.554283618927
---
header: 
  seq: 1160
  stamp: 
    secs: 1584993420
    nsecs: 689863044
  frame_id: "imu"
frame_id: ''
accelerometers: 
  x: -0.0315165800417
  y: 0.0203615163498
  z: -9.81256419248
gyroscopes: 
  x: -0.00393641553819
  y: -0.000877241720445
  z: -0.000101329234894
magnetometers: 
  x: 0.0802831426263
  y: -0.331642538309
  z: 0.553886651993
---
header: 
  seq: 1161
  stamp: 
    secs: 1584993420
    nsecs: 695857645
  frame_id: "imu"
frame_id: ''
accelerometers: 
  x: -0.0332154152822
  y: 0.013425078425
  z: -9.80845617264
gyroscopes: 
  x: -0.00512506114319
  y: -0.000907953013666
  z: -0.000823942711577
magnetometers: 
  x: 0.0799264088273
  y: -0.331306159496
  z: 0.553698122501
---
header: 
  seq: 1162
  stamp: 
    secs: 1584993420
    nsecs: 707808198
  frame_id: "imu"
frame_id: ''
accelerometers: 
  x: -0.0391017379411
  y: 0.0091984999637
  z: -9.80587083232
gyroscopes: 
  x: -0.00471342401579
  y: -0.000981507939287
  z: -0.00126008118968
magnetometers: 
  x: 0.0796450003982
  y: -0.331263512373
  z: 0.554022192955
---
header: 
  seq: 1163
  stamp: 
    secs: 1584993420
    nsecs: 719858077
  frame_id: "imu"
frame_id: ''
accelerometers: 
  x: -0.0413097785125
  y: 0.00722869201985
  z: -9.80222049312
gyroscopes: 
  x: -0.00513778720051
  y: -0.000295729289064
  z: -0.000675933202729
magnetometers: 
  x: 0.0792858973145
  y: -0.331362783909
  z: 0.554043769836
---
header: 
  seq: 1164
  stamp: 
    secs: 1584993420
    nsecs: 725852443
  frame_id: "imu"
frame_id: ''
accelerometers: 
  x: -0.0419092011438
  y: 0.00864378184052
  z: -9.80647990413
gyroscopes: 
  x: -0.00500651169568
  y: -0.000482766103232
  z: -0.00125072826631
magnetometers: 
  x: 0.0795536413789
  y: -0.33104249835
  z: 0.554047942162
---
header: 
  seq: 1165
  stamp: 
    secs: 1584993420
    nsecs: 737858056
  frame_id: "imu"
frame_id: ''
accelerometers: 
  x: -0.0402416469575
  y: 0.0149303821211
  z: -9.81055109909
gyroscopes: 
  x: -0.00485485699028
  y: -0.00133458140772
  z: 7.29461899027e-05
magnetometers: 
  x: 0.0786863863468
  y: -0.331620901823
  z: 0.553788244724
---
header: 
  seq: 1166
  stamp: 
    secs: 1584993420
    nsecs: 749867980
  frame_id: "imu"
frame_id: ''
accelerometers: 
  x: -0.0378536535591
  y: 0.0203993664255
  z: -9.80992682971
gyroscopes: 
  x: -0.00435111764818
  y: -0.000880369974766
  z: 0.000616332748905
magnetometers: 
  x: 0.0787650495768
  y: -0.330345898867
  z: 0.553930580616
---
header: 
  seq: 1167
  stamp: 
    secs: 1584993420
    nsecs: 755854960
  frame_id: "imu"
frame_id: ''
accelerometers: 
  x: -0.0337879430567
  y: 0.0206082713523
  z: -9.81172248096
gyroscopes: 
  x: -0.00366631709039
  y: -0.00195130764041
  z: -0.000380367448088
magnetometers: 
  x: 0.0775962099433
  y: -0.330848008394
  z: 0.553602814674
---
header: 
  seq: 1168
  stamp: 
    secs: 1584993420
    nsecs: 773810020
  frame_id: "imu"
frame_id: ''
accelerometers: 
  x: -0.0337299155595
  y: 0.0184342974472
  z: -9.81170260721
gyroscopes: 
  x: -0.00432741828263
  y: -0.0014280800242
  z: 0.000273879995802
magnetometers: 
  x: 0.0786181390285
  y: -0.330660641193
  z: 0.553423464298
---
header: 
  seq: 1169
  stamp: 
    secs: 1584993420
    nsecs: 779814232
  frame_id: "imu"
frame_id: ''
accelerometers: 
  x: -0.0339375464112
  y: 0.015388171217
  z: -9.80580302778
gyroscopes: 
  x: -0.00478458730504
  y: -0.000526158721186
  z: 0.000404131831601
magnetometers: 
  x: 0.0787970423698
  y: -0.331202358007
  z: 0.55389291048
---
header: 
  seq: 1170
  stamp: 
    secs: 1584993420
    nsecs: 785853014
  frame_id: "imu"
frame_id: ''
accelerometers: 
  x: -0.0378497811016
  y: 0.0156780906493
  z: -9.80336323341
gyroscopes: 
  x: -0.00432065827772
  y: -0.00101328990422
  z: 0.000470265949843
magnetometers: 
  x: 0.078755415976
  y: -0.331194043159
  z: 0.553982853889
---
header: 
  seq: 1171
  stamp: 
    secs: 1584993420
    nsecs: 797836931
  frame_id: "imu"
frame_id: ''
accelerometers: 
  x: -0.0367702331034
  y: 0.0142085729359
  z: -9.80315046745
gyroscopes: 
  x: -0.00453004427254
  y: -0.00114194443449
  z: -0.000939833931625
magnetometers: 
  x: 0.0789723545313
  y: -0.331338167191
  z: 0.5538854599
---
header: 
  seq: 1172
  stamp: 
    secs: 1584993420
    nsecs: 809852323
  frame_id: "imu"
frame_id: ''
accelerometers: 
  x: -0.0351184039259
  y: 0.0158423812579
  z: -9.80493325921
gyroscopes: 
  x: -0.00430029956624
  y: -0.000887640228029
  z: -0.00132259726524
magnetometers: 
  x: 0.0788604021072
  y: -0.331670641899
  z: 0.553841590881
---
header: 
  seq: 1173
  stamp: 
    secs: 1584993420
    nsecs: 821857521
  frame_id: "imu"
frame_id: ''
accelerometers: 
  x: -0.0370356517071
  y: 0.016023668667
  z: -9.80668507131
gyroscopes: 
  x: -0.00505955563858
  y: -0.000270891410764
  z: -0.000396185583668
magnetometers: 
  x: 0.0788362771273
  y: -0.332437187433
  z: 0.553856730461
---
header: 
  seq: 1174
  stamp: 
    secs: 1584993420
    nsecs: 827810278
  frame_id: "imu"
frame_id: ''
accelerometers: 
  x: -0.0332906153933
  y: 0.0167052999638
  z: -9.80626655364
gyroscopes: 
  x: -0.00450902432203
  y: -0.000548613956198
  z: -0.000830782053526
magnetometers: 
  x: 0.0789246633649
  y: -0.332395642996
  z: 0.553891777992
---
header: 
  seq: 1175
  stamp: 
    secs: 1584993420
    nsecs: 839855214
  frame_id: "imu"
frame_id: ''
accelerometers: 
  x: -0.0335082493325
  y: 0.0176242802555
  z: -9.80704981297
gyroscopes: 
  x: -0.00410034507513
  y: -0.000794834631961
  z: -0.00107476802077
magnetometers: 
  x: 0.0792583227158
  y: -0.332624584436
  z: 0.55373775959
---
header: 
  seq: 1176
  stamp: 
    secs: 1584993420
    nsecs: 851854125
  frame_id: "imu"
frame_id: ''
accelerometers: 
  x: -0.0350535699452
  y: 0.0155390360883
  z: -9.81184873769
gyroscopes: 
  x: -0.0043155006133
  y: -0.000102871883428
  z: -0.000780032481998
magnetometers: 
  x: 0.0792254656553
  y: -0.332853466272
  z: 0.55376791954
---
header: 
  seq: 1177
  stamp: 
    secs: 1584993420
    nsecs: 857855214
  frame_id: "imu"
frame_id: ''
accelerometers: 
  x: -0.0365440779311
  y: 0.0119768923356
  z: -9.8087835049
gyroscopes: 
  x: -0.00372374965809
  y: -0.000341927399859
  z: -0.00127922894899
magnetometers: 
  x: 0.0794011577964
  y: -0.3330732584
  z: 0.553743898869
---
header: 
  seq: 1178
  stamp: 
    secs: 1584993420
    nsecs: 869868255
  frame_id: "imu"
frame_id: ''
accelerometers: 
  x: -0.0367702308201
  y: 0.0149710577664
  z: -9.80606021741
gyroscopes: 
  x: -0.00387832638808
  y: -0.000656507210806
  z: -0.00111323397141
magnetometers: 
  x: 0.0799703523517
  y: -0.333037674427
  z: 0.553624033928
---
header: 
  seq: 1179
  stamp: 
    secs: 1584993420
    nsecs: 881858324
  frame_id: "imu"
frame_id: ''
accelerometers: 
  x: -0.0376166527657
  y: 0.0140210818315
  z: -9.80683353987
gyroscopes: 
  x: -0.00451046321541
  y: -0.000455467496067
  z: -0.000794424500782
magnetometers: 
  x: 0.0795467197895
  y: -0.332490712404
  z: 0.553647279739
---
header: 
  seq: 1180
  stamp: 
    secs: 1584993420
    nsecs: 887854809
  frame_id: "imu"
frame_id: ''
accelerometers: 
  x: -0.037806005892
  y: 0.016142338027
  z: -9.80516414536
gyroscopes: 
  x: -0.00369235407561
  y: -5.50288459635e-05
  z: -0.00115224428009
magnetometers: 
  x: 0.0794512480497
  y: -0.332335531712
  z: 0.553788304329
---
header: 
  seq: 1181
  stamp: 
    secs: 1584993420
    nsecs: 899877377
  frame_id: "imu"
frame_id: ''
accelerometers: 
  x: -0.0382936455617
  y: 0.0188799383059
  z: -9.80493384373
gyroscopes: 
  x: -0.00475919339806
  y: -0.000425467471359
  z: -0.00127362133935
magnetometers: 
  x: 0.079116217792
  y: -0.332538217306
  z: 0.553584754467
---
header: 
  seq: 1182
  stamp: 
    secs: 1584993420
    nsecs: 911860718
  frame_id: "imu"
frame_id: ''
accelerometers: 
  x: -0.0385861120025
  y: 0.0188361779376
  z: -9.80862802207
gyroscopes: 
  x: -0.0040397439152
  y: -0.000719949661288
  z: -0.000708210514858
magnetometers: 
  x: 0.0792610868812
  y: -0.33258742094
  z: 0.553351402283
---
header: 
  seq: 1183
  stamp: 
    secs: 1584993420
    nsecs: 917859333
  frame_id: "imu"
frame_id: ''
accelerometers: 
  x: -0.0400399686392
  y: 0.0203999166981
  z: -9.80757822076
gyroscopes: 
  x: -0.00417103851214
  y: -0.000892830663361
  z: -0.000978172756732
magnetometers: 
  x: 0.0793081745505
  y: -0.332734584808
  z: 0.553442597389
---
header: 
  seq: 1184
  stamp: 
    secs: 1584993420
    nsecs: 929889072
  frame_id: "imu"
frame_id: ''
accelerometers: 
  x: -0.0376295830293
  y: 0.0231800192531
  z: -9.80892028302
gyroscopes: 
  x: -0.00441648811102
  y: -0.00126389251091
  z: 0.00041744322516
magnetometers: 
  x: 0.0795029774308
  y: -0.332830935717
  z: 0.553484380245
---
header: 
  seq: 1185
  stamp: 
    secs: 1584993420
    nsecs: 941873441
  frame_id: "imu"
frame_id: ''
accelerometers: 
  x: -0.0393318477693
  y: 0.0227112966297
  z: -9.80775708446
gyroscopes: 
  x: -0.00446257879958
  y: -0.00049802736612
  z: -0.00048389469157
magnetometers: 
  x: 0.0796512439847
  y: -0.332737147808
  z: 0.553503632545
---
header: 
  seq: 1186
  stamp: 
    secs: 1584993420
    nsecs: 947869465
  frame_id: "imu"
frame_id: ''
accelerometers: 
  x: -0.0386901523323
  y: 0.0175991686472
  z: -9.80885715466
gyroscopes: 
  x: -0.00349922757596
  y: -0.00110389036126
  z: -0.000876655802131
magnetometers: 
  x: 0.0799456089735
  y: -0.332714498043
  z: 0.553510010242
---
header: 
  seq: 1187
  stamp: 
    secs: 1584993420
    nsecs: 959876545
  frame_id: "imu"
frame_id: ''
accelerometers: 
  x: -0.0369190418734
  y: 0.0150661715793
  z: -9.80684055414
gyroscopes: 
  x: -0.00424735900015
  y: -0.00067153951386
  z: 0.000553208868951
magnetometers: 
  x: 0.0807187631726
  y: -0.33273255825
  z: 0.553572118282
---
header: 
  seq: 1188
  stamp: 
    secs: 1584993420
    nsecs: 971867064
  frame_id: "imu"
frame_id: ''
accelerometers: 
  x: -0.0338127738206
  y: 0.0143491972578
  z: -9.80323230051
gyroscopes: 
  x: -0.0040829218924
  y: -0.000592458061874
  z: -0.000993154128082
magnetometers: 
  x: 0.0810481235385
  y: -0.332683116198
  z: 0.553605675697
---
header: 
  seq: 1189
  stamp: 
    secs: 1584993420
    nsecs: 977814076
  frame_id: "imu"
frame_id: ''
accelerometers: 
  x: -0.0337854565554
  y: 0.0178350814535
  z: -9.80731050974
gyroscopes: 
  x: -0.00421451730654
  y: -0.000122787780128
  z: -0.00122573343106
magnetometers: 
  x: 0.0807783156633
  y: -0.332298308611
  z: 0.553691387177
---
header: 
  seq: 1190
  stamp: 
    secs: 1584993420
    nsecs: 989884184
  frame_id: "imu"
frame_id: ''
accelerometers: 
  x: -0.0306696078235
  y: 0.0160728107466
  z: -9.80831238025
gyroscopes: 
  x: -0.00494766468182
  y: -0.000513676437549
  z: -0.00106132030487
magnetometers: 
  x: 0.0806044116616
  y: -0.332363635302
  z: 0.553807199001
---
header: 
  seq: 1191
  stamp: 
    secs: 1584993421
    nsecs:   1865082
  frame_id: "imu"
frame_id: ''
accelerometers: 
  x: -0.0343211160684
  y: 0.0139415023729
  z: -9.80964275208
gyroscopes: 
  x: -0.0038815329317
  y: -0.00129920779727
  z: -0.000949301873334
magnetometers: 
  x: 0.0805849134922
  y: -0.332609832287
  z: 0.55365717411
---
header: 
  seq: 1192
  stamp: 
    secs: 1584993421
    nsecs:  13860258
  frame_id: "imu"
frame_id: ''
accelerometers: 
  x: -0.0371280837975
  y: 0.0111823535576
  z: -9.81110639489
gyroscopes: 
  x: -0.00500287115574
  y: -0.00120410637464
  z: -0.00151997921057
magnetometers: 
  x: 0.0805180668831
  y: -0.33259215951
  z: 0.553444504738
---
header: 
  seq: 1193
  stamp: 
    secs: 1584993421
    nsecs:  19953908
  frame_id: "imu"
frame_id: ''
accelerometers: 
  x: -0.0388605998287
  y: 0.0156416950285
  z: -9.80787048171
gyroscopes: 
  x: -0.00369123439305
  y: -0.000687528634444
  z: -0.000661169586238
magnetometers: 
  x: 0.0806198120117
  y: -0.332500427961
  z: 0.553434431553
---
header: 
  seq: 1194
  stamp: 
    secs: 1584993421
    nsecs:  31876939
  frame_id: "imu"
frame_id: ''
accelerometers: 
  x: -0.0417091393939
  y: 0.020103477335
  z: -9.80648633387
gyroscopes: 
  x: -0.00404203310609
  y: -0.00192680407781
  z: -0.00130236928817
magnetometers: 
  x: 0.0806363672018
  y: -0.332050144672
  z: 0.55356746912
---
header: 
  seq: 1195
  stamp: 
    secs: 1584993421
    nsecs:  43828053
  frame_id: "imu"
frame_id: ''
accelerometers: 
  x: -0.0402858833914
  y: 0.0244914854442
  z: -9.8045030511
gyroscopes: 
  x: -0.00349402264692
  y: -0.000930723152123
  z: -0.00155316398013
magnetometers: 
  x: 0.0807440429926
  y: -0.332128226757
  z: 0.553296744823
---
header: 
  seq: 1196
  stamp: 
    secs: 1584993421
    nsecs:  49871039
  frame_id: "imu"
frame_id: ''
accelerometers: 
  x: -0.0392120299151
  y: 0.0208176283702
  z: -9.80304057733
gyroscopes: 
  x: -0.00440420303494
  y: -0.000886121357325
  z: -0.000298673694488
magnetometers: 
  x: 0.0810925439
  y: -0.331938296556
  z: 0.553365468979
---
header: 
  seq: 1197
  stamp: 
    secs: 1584993421
    nsecs:  61864905
  frame_id: "imu"
frame_id: ''
accelerometers: 
  x: -0.0357691754353
  y: 0.0119074803612
  z: -9.80614146596
gyroscopes: 
  x: -0.00471723638475
  y: 0.000389120134059
  z: -0.000460350711364
magnetometers: 
  x: 0.0812890380621
  y: -0.331818759441
  z: 0.553572118282
---
header: 
  seq: 1198
  stamp: 
    secs: 1584993421
    nsecs:  73863392
  frame_id: "imu"
frame_id: ''
accelerometers: 
  x: -0.0323415938731
  y: 0.00439447580963
  z: -9.81007997445
gyroscopes: 
  x: -0.00478443596512
  y: 0.000138568808325
  z: -0.000547599047422
magnetometers: 
  x: 0.0809531286359
  y: -0.331727594137
  z: 0.553677499294
---
header: 
  seq: 1199
  stamp: 
    secs: 1584993421
    nsecs:  79863948
  frame_id: "imu"
frame_id: ''
accelerometers: 
  x: -0.0329501519422
  y: 0.00423288090871
  z: -9.81263199702
gyroscopes: 
  x: -0.00434156041592
  y: -1.64111261256e-05
  z: -0.000730186118744
magnetometers: 
  x: 0.0806118249893
  y: -0.331719994545
  z: 0.55382502079
---
header: 
  seq: 1200
  stamp: 
    secs: 1584993421
    nsecs:  91876597
  frame_id: "imu"
frame_id: ''
accelerometers: 
  x: -0.0366971222015
  y: 0.0132674447444
  z: -9.81046225176
gyroscopes: 
  x: -0.00396482041106
  y: -0.000286167196464
  z: -0.00103425665293
magnetometers: 
  x: 0.0802743509412
  y: -0.331389725208
  z: 0.553658604622
---
header: 
  seq: 1201
  stamp: 
    secs: 1584993421
    nsecs: 103875673
  frame_id: "imu"
frame_id: ''
accelerometers: 
  x: -0.036395750935
  y: 0.020499963556
  z: -9.80632442131
gyroscopes: 
  x: -0.00340485037304
  y: -0.00110036297701
  z: -0.00164215639234
magnetometers: 
  x: 0.0801836177707
  y: -0.330976486206
  z: 0.553729712963
---
header: 
  seq: 1202
  stamp: 
    secs: 1584993421
    nsecs: 109824803
  frame_id: "imu"
frame_id: ''
accelerometers: 
  x: -0.0402564746339
  y: 0.0224472913816
  z: -9.80527812712
gyroscopes: 
  x: -0.00423006108031
  y: -0.000897922494914
  z: 4.12388471887e-05
magnetometers: 
  x: 0.0800752714276
  y: -0.331183344126
  z: 0.553706943989
---
header: 
  seq: 1203
  stamp: 
    secs: 1584993421
    nsecs: 121854923
  frame_id: "imu"
frame_id: ''
accelerometers: 
  x: -0.0445799958222
  y: 0.0181940931999
  z: -9.80404946211
gyroscopes: 
  x: -0.00392396980897
  y: -0.00136810983531
  z: -0.000615368713625
magnetometers: 
  x: 0.0804157778621
  y: -0.331155449152
  z: 0.553603768349
---
header: 
  seq: 1204
  stamp: 
    secs: 1584993421
    nsecs: 133880175
  frame_id: "imu"
frame_id: ''
accelerometers: 
  x: -0.046181056077
  y: 0.0129280532973
  z: -9.80416987362
gyroscopes: 
  x: -0.00389526225626
  y: -0.00164261087775
  z: -0.000961623969488
magnetometers: 
  x: 0.0807290375233
  y: -0.331348121166
  z: 0.55336356163
---
header: 
  seq: 1205
  stamp: 
    secs: 1584993421
    nsecs: 139812335
  frame_id: "imu"
frame_id: ''
accelerometers: 
  x: -0.0395209816999
  y: 0.0102534363937
  z: -9.80551485849
gyroscopes: 
  x: -0.0041922852397
  y: -0.00149508332834
  z: -0.000459968170617
magnetometers: 
  x: 0.0804485157132
  y: -0.331396520138
  z: 0.553543806076
---
header: 
  seq: 1206
  stamp: 
    secs: 1584993421
    nsecs: 151846986
  frame_id: "imu"
frame_id: ''
accelerometers: 
  x: -0.0337391720116
  y: 0.0112762412445
  z: -9.80728595982
gyroscopes: 
  x: -0.00468274299055
  y: -0.00120298773982
  z: -0.00120025186334
magnetometers: 
  x: 0.0802058428526
  y: -0.331326633692
  z: 0.553900241852
---
header: 
  seq: 1207
  stamp: 
    secs: 1584993421
    nsecs: 163877667
  frame_id: "imu"
frame_id: ''
accelerometers: 
  x: -0.0293154190189
  y: 0.0194949443821
  z: -9.81215385811
gyroscopes: 
  x: -0.00533115491271
  y: -0.000994965084828
  z: -0.00113948446233
magnetometers: 
  x: 0.0806989446282
  y: -0.331780701876
  z: 0.554107964039
---
header: 
  seq: 1208
  stamp: 
    secs: 1584993421
    nsecs: 169869667
  frame_id: "imu"
frame_id: ''
accelerometers: 
  x: -0.0310500242591
  y: 0.028473725764
  z: -9.80877181446
gyroscopes: 
  x: -0.00485814455897
  y: -0.00113828177564
  z: -0.00114451535046
magnetometers: 
  x: 0.0808079317212
  y: -0.332204520702
  z: 0.553832709789
---
header: 
  seq: 1209
  stamp: 
    secs: 1584993421
    nsecs: 181868517
  frame_id: "imu"
frame_id: ''
accelerometers: 
  x: -0.0292830671023
  y: 0.0257321765375
  z: -9.80803414783
gyroscopes: 
  x: -0.00465398747474
  y: -0.00134441093542
  z: -0.00088515348034
magnetometers: 
  x: 0.0804514139891
  y: -0.332563877106
  z: 0.553720295429
---
header: 
  seq: 1210
  stamp: 
    secs: 1584993421
    nsecs: 193868100
  frame_id: "imu"
frame_id: ''
accelerometers: 
  x: -0.0361987145425
  y: 0.0208195486159
  z: -9.80646704465
gyroscopes: 
  x: -0.00449706520885
  y: -0.000813953229226
  z: -0.00039067940088
magnetometers: 
  x: 0.0803010687232
  y: -0.332190454006
  z: 0.553657948971
---
header: 
  seq: 1211
  stamp: 
    secs: 1584993421
    nsecs: 199864193
  frame_id: "imu"
frame_id: ''
accelerometers: 
  x: -0.0399375357446
  y: 0.0129884725394
  z: -9.80830887312
gyroscopes: 
  x: -0.00421685911715
  y: 0.000884797074832
  z: -0.000318045902532
magnetometers: 
  x: 0.0799012929201
  y: -0.331876575947
  z: 0.553871572018
---
header: 
  seq: 1212
  stamp: 
    secs: 1584993421
    nsecs: 224017468
  frame_id: "imu"
frame_id: ''
accelerometers: 
  x: -0.0446049065012
  y: 0.0109381706798
  z: -9.80628525834
gyroscopes: 
  x: -0.00421024067327
  y: -0.000400611344958
  z: -0.000623843749054
magnetometers: 
  x: 0.079531006515
  y: -0.331796973944
  z: 0.554013073444
---
header: 
  seq: 1213
  stamp: 
    secs: 1584993421
    nsecs: 224133706
  frame_id: "imu"
frame_id: ''
accelerometers: 
  x: -0.0441696020901
  y: 0.0121920009576
  z: -9.80286814337
gyroscopes: 
  x: -0.0026859678328
  y: -0.000797694025096
  z: 0.000249687029282
magnetometers: 
  x: 0.0801607817411
  y: -0.332257091999
  z: 0.554145276546
---
header: 
  seq: 1214
  stamp: 
    secs: 1584993421
    nsecs: 235869161
  frame_id: "imu"
frame_id: ''
accelerometers: 
  x: -0.0399502262629
  y: 0.0120291077217
  z: -9.80604151271
gyroscopes: 
  x: -0.00421994831413
  y: -0.000318175996654
  z: -0.000157350790687
magnetometers: 
  x: 0.0804821327329
  y: -0.332105457783
  z: 0.554346203804
---
header: 
  seq: 1215
  stamp: 
    secs: 1584993421
    nsecs: 241811073
  frame_id: "imu"
frame_id: ''
accelerometers: 
  x: -0.0343896763761
  y: 0.0106486896389
  z: -9.81026702145
gyroscopes: 
  x: -0.00432370509952
  y: 0.000219121051487
  z: -0.000401277007768
magnetometers: 
  x: 0.0807540640235
  y: -0.332752525806
  z: 0.554227113724
---
header: 
  seq: 1216
  stamp: 
    secs: 1584993421
    nsecs: 253863982
  frame_id: "imu"
frame_id: ''
accelerometers: 
  x: -0.0309198379912
  y: 0.0184414155995
  z: -9.81081764107
gyroscopes: 
  x: -0.00410063378513
  y: 0.000163227436133
  z: 0.000705660320818
magnetometers: 
  x: 0.0807889178395
  y: -0.332748830318
  z: 0.553777337074
---
header: 
  seq: 1217
  stamp: 
    secs: 1584993421
    nsecs: 265863810
  frame_id: "imu"
frame_id: ''
accelerometers: 
  x: -0.0297858221428
  y: 0.0273566587671
  z: -9.8113016252
gyroscopes: 
  x: -0.00432413863018
  y: -0.000210680111195
  z: 0.000520002737176
magnetometers: 
  x: 0.0816300362349
  y: -0.331929534674
  z: 0.553841292858
---
header: 
  seq: 1218
  stamp: 
    secs: 1584993421
    nsecs: 271861001
  frame_id: "imu"
frame_id: ''
accelerometers: 
  x: -0.0326757737139
  y: 0.0294582181732
  z: -9.80802128835
gyroscopes: 
  x: -0.00488224579021
  y: -0.000565644528251
  z: -9.35030257097e-05
magnetometers: 
  x: 0.0815317928791
  y: -0.332158237696
  z: 0.553704559803
---
header: 
  seq: 1219
  stamp: 
    secs: 1584993421
    nsecs: 283839303
  frame_id: "imu"
frame_id: ''
accelerometers: 
  x: -0.0353822447772
  y: 0.0261713808055
  z: -9.80706033437
gyroscopes: 
  x: -0.00395255023614
  y: -7.83317955211e-05
  z: -1.34406363941e-05
magnetometers: 
  x: 0.0808645635843
  y: -0.332023739815
  z: 0.55395925045
---
header: 
  seq: 1220
  stamp: 
    secs: 1584993421
    nsecs: 295831154
  frame_id: "imu"
frame_id: ''
accelerometers: 
  x: -0.0402522231504
  y: 0.0172849264827
  z: -9.80702409401
gyroscopes: 
  x: -0.00444803666323
  y: -0.000213326129597
  z: -0.000671163084917
magnetometers: 
  x: 0.0810458213091
  y: -0.331934332848
  z: 0.553900539875
---
header: 
  seq: 1221
  stamp: 
    secs: 1584993421
    nsecs: 301824667
  frame_id: "imu"
frame_id: ''
accelerometers: 
  x: -0.0422768791121
  y: 0.00511337123316
  z: -9.8085754151
gyroscopes: 
  x: -0.0037791361101
  y: 6.69463188387e-05
  z: -0.00018037809059
magnetometers: 
  x: 0.0807535871863
  y: -0.332090228796
  z: 0.554072499275
---
header: 
  seq: 1222
  stamp: 
    secs: 1584993421
    nsecs: 313871743
  frame_id: "imu"
frame_id: ''
accelerometers: 
  x: -0.0416497967224
  y: 0.000319380634212
  z: -9.80935516731
gyroscopes: 
  x: -0.00343706388958
  y: -0.000512478058226
  z: -3.69769695681e-05
magnetometers: 
  x: 0.0809178799391
  y: -0.332109719515
  z: 0.55419164896
---
header: 
  seq: 1223
  stamp: 
    secs: 1584993421
    nsecs: 325833389
  frame_id: "imu"
frame_id: ''
accelerometers: 
  x: -0.0387435858529
  y: 0.00374088529507
  z: -9.80977134689
gyroscopes: 
  x: -0.00490820128471
  y: -0.000204477051739
  z: -0.000610055110883
magnetometers: 
  x: 0.0804147347808
  y: -0.332852840424
  z: 0.554139792919
---
header: 
  seq: 1224
  stamp: 
    secs: 1584993421
    nsecs: 331868708
  frame_id: "imu"
frame_id: ''
accelerometers: 
  x: -0.0390263528836
  y: 0.00570618945209
  z: -9.80848306065
gyroscopes: 
  x: -0.00444061122835
  y: -0.000300717918435
  z: -0.000826631847303
magnetometers: 
  x: 0.0802570953965
  y: -0.333348363638
  z: 0.554328918457
---
header: 
  seq: 1225
  stamp: 
    secs: 1584993421
    nsecs: 343811341
  frame_id: "imu"
frame_id: ''
accelerometers: 
  x: -0.0383774285548
  y: 0.0155975305182
  z: -9.80517583579
gyroscopes: 
  x: -0.00386208132841
  y: -0.00101493182592
  z: -0.000253413920291
magnetometers: 
  x: 0.0800074711442
  y: -0.333354234695
  z: 0.554227232933
---
header: 
  seq: 1226
  stamp: 
    secs: 1584993421
    nsecs: 355866801
  frame_id: "imu"
frame_id: ''
accelerometers: 
  x: -0.035311410314
  y: 0.0196208220843
  z: -9.80486019397
gyroscopes: 
  x: -0.00410686247051
  y: 0.00012287197751
  z: -0.00118753896095
magnetometers: 
  x: 0.0800254493952
  y: -0.332874655724
  z: 0.554370820522
---
header: 
  seq: 1227
  stamp: 
    secs: 1584993421
    nsecs: 361867034
  frame_id: "imu"
frame_id: ''
accelerometers: 
  x: -0.0326801781777
  y: 0.0256742632047
  z: -9.80661726677
gyroscopes: 
  x: -0.00508766807616
  y: -0.000166207930306
  z: -0.000315005658194
magnetometers: 
  x: 0.0811393558979
  y: -0.332521289587
  z: 0.554465651512
---
header: 
  seq: 1228
  stamp: 
    secs: 1584993421
    nsecs: 373874597
  frame_id: "imu"
frame_id: ''
accelerometers: 
  x: -0.031769995397
  y: 0.0216810174336
  z: -9.8054324409
gyroscopes: 
  x: -0.00492802308872
  y: -0.000525985553395
  z: -0.000601595733315
magnetometers: 
  x: 0.0806757956743
  y: -0.332157671452
  z: 0.554524481297
---
header: 
  seq: 1229
  stamp: 
    secs: 1584993421
    nsecs: 385874842
  frame_id: "imu"
frame_id: ''
accelerometers: 
  x: -0.0314870776693
  y: 0.0160840924757
  z: -9.80486311658
gyroscopes: 
  x: -0.00360305490904
  y: -0.000670550973155
  z: -0.000144791323692
magnetometers: 
  x: 0.0807796344161
  y: -0.332770437002
  z: 0.554549217224
---
header: 
  seq: 1230
  stamp: 
    secs: 1584993421
    nsecs: 391866449
  frame_id: "imu"
frame_id: ''
accelerometers: 
  x: -0.035464134924
  y: 0.0124374978679
  z: -9.80483330597
gyroscopes: 
  x: -0.00490967091173
  y: -0.000377106771339
  z: -0.00114308029879
magnetometers: 
  x: 0.0807949155569
  y: -0.332639396191
  z: 0.554325938225
---
header: 
  seq: 1231
  stamp: 
    secs: 1584993421
    nsecs: 403828749
  frame_id: "imu"
frame_id: ''
accelerometers: 
  x: -0.0389882995953
  y: 0.0151441184866
  z: -9.80801076696
gyroscopes: 
  x: -0.00450303312391
  y: -0.00112744688522
  z: -0.000929213070776
magnetometers: 
  x: 0.0804087594151
  y: -0.33289834857
  z: 0.554771721363
---
header: 
  seq: 1232
  stamp: 
    secs: 1584993421
    nsecs: 427963942
  frame_id: "imu"
frame_id: ''
accelerometers: 
  x: -0.0398983864778
  y: 0.0192927249244
  z: -9.80656524433
gyroscopes: 
  x: -0.00456192716956
  y: -0.00145774276461
  z: -0.000970322289504
magnetometers: 
  x: 0.0798705071211
  y: -0.333195984364
  z: 0.554621636868
---
header: 
  seq: 1233
  stamp: 
    secs: 1584993421
    nsecs: 428076406
  frame_id: "imu"
frame_id: ''
accelerometers: 
  x: -0.0430030790614
  y: 0.0189714490893
  z: -9.80733155252
gyroscopes: 
  x: -0.00442599086091
  y: -0.000795783358626
  z: -0.000549804943148
magnetometers: 
  x: 0.0799319818616
  y: -0.332926571369
  z: 0.554699361324
---
header: 
  seq: 1234
  stamp: 
    secs: 1584993421
    nsecs: 433826449
  frame_id: "imu"
frame_id: ''
accelerometers: 
  x: -0.0423984733649
  y: 0.0200753769018
  z: -9.80892028302
gyroscopes: 
  x: -0.00395018607378
  y: -0.0010225859005
  z: -0.000648725312203
magnetometers: 
  x: 0.0798084288836
  y: -0.332976788282
  z: 0.554503679276
---
header: 
  seq: 1235
  stamp: 
    secs: 1584993421
    nsecs: 445861376
  frame_id: "imu"
frame_id: ''
accelerometers: 
  x: -0.0437850734517
  y: 0.019808264098
  z: -9.80476316334
gyroscopes: 
  x: -0.00377863366157
  y: -0.00236579217017
  z: -0.000422009965405
magnetometers: 
  x: 0.079863153398
  y: -0.333002507687
  z: 0.554821252823
---
header: 
  seq: 1236
  stamp: 
    secs: 1584993421
    nsecs: 457823680
  frame_id: "imu"
frame_id: ''
accelerometers: 
  x: -0.0362486706145
  y: 0.0183236218806
  z: -9.80452000223
gyroscopes: 
  x: -0.00385175808333
  y: -0.00102343468461
  z: -0.00160022103228
magnetometers: 
  x: 0.079921849072
  y: -0.333673715591
  z: 0.555112421513
---
header: 
  seq: 1237
  stamp: 
    secs: 1584993421
    nsecs: 463866948
  frame_id: "imu"
frame_id: ''
accelerometers: 
  x: -0.035103587666
  y: 0.01768015347
  z: -9.8057714636
gyroscopes: 
  x: -0.00416694860905
  y: -0.000441783573478
  z: -0.000197555316845
magnetometers: 
  x: 0.0803519487381
  y: -0.332836449146
  z: 0.555246353149
---
header: 
  seq: 1238
  stamp: 
    secs: 1584993421
    nsecs: 475855468
  frame_id: "imu"
frame_id: ''
accelerometers: 
  x: -0.0357845419678
  y: 0.0164540936902
  z: -9.8054938157
gyroscopes: 
  x: -0.00431154249236
  y: -0.00117440172471
  z: -0.0010917133186
magnetometers: 
  x: 0.0803426653147
  y: -0.332686573267
  z: 0.555038511753
---
header: 
  seq: 1239
  stamp: 
    secs: 1584993421
    nsecs: 487867958
  frame_id: "imu"
frame_id: ''
accelerometers: 
  x: -0.0320118093629
  y: 0.0164917862189
  z: -9.81045874463
gyroscopes: 
  x: -0.00298495893367
  y: -0.00106259819586
  z: -0.000194318272406
magnetometers: 
  x: 0.0801139399409
  y: -0.332728624344
  z: 0.55521696806
---
header: 
  seq: 1240
  stamp: 
    secs: 1584993421
    nsecs: 493859185
  frame_id: "imu"
frame_id: ''
accelerometers: 
  x: -0.0330821853906
  y: 0.014690424469
  z: -9.81214918194
gyroscopes: 
  x: -0.00422252994031
  y: -0.00163221883122
  z: -0.00075441901572
magnetometers: 
  x: 0.0799979642034
  y: -0.332622289658
  z: 0.554889500141
---
header: 
  seq: 1241
  stamp: 
    secs: 1584993421
    nsecs: 505865439
  frame_id: "imu"
frame_id: ''
accelerometers: 
  x: -0.0354119183962
  y: 0.0170852289173
  z: -9.81048680168
gyroscopes: 
  x: -0.00414908723906
  y: -0.00111221859697
  z: -0.00087159848772
magnetometers: 
  x: 0.0799545422196
  y: -0.332831591368
  z: 0.555007278919
---
header: 
  seq: 1242
  stamp: 
    secs: 1584993421
    nsecs: 517872982
  frame_id: "imu"
frame_id: ''
accelerometers: 
  x: -0.0350685894179
  y: 0.0185362634093
  z: -9.81026468337
gyroscopes: 
  x: -0.00423848163337
  y: -0.00200368161313
  z: -0.000924901571125
magnetometers: 
  x: 0.0797791257501
  y: -0.332130849361
  z: 0.555203199387
---
header: 
  seq: 1243
  stamp: 
    secs: 1584993421
    nsecs: 529806728
  frame_id: "imu"
frame_id: ''
accelerometers: 
  x: -0.0347818585981
  y: 0.019897481318
  z: -9.80686276597
gyroscopes: 
  x: -0.00386553723365
  y: -0.00051009102026
  z: -3.05301655317e-05
magnetometers: 
  x: 0.0805258452892
  y: -0.33236733079
  z: 0.555562794209
---
header: 
  seq: 1244
  stamp: 
    secs: 1584993421
    nsecs: 535789127
  frame_id: "imu"
frame_id: ''
accelerometers: 
  x: -0.0376898321664
  y: 0.0167913651038
  z: -9.80317209476
gyroscopes: 
  x: -0.00419503822923
  y: -0.000551887729671
  z: -0.00146781373769
magnetometers: 
  x: 0.0798569396138
  y: -0.332553476095
  z: 0.555474281311
---
header: 
  seq: 1245
  stamp: 
    secs: 1584993421
    nsecs: 547861793
  frame_id: "imu"
frame_id: ''
accelerometers: 
  x: -0.038165817931
  y: 0.0171030796678
  z: -9.80292834913
gyroscopes: 
  x: -0.00483180675656
  y: 0.000120784010505
  z: 0.000314550037729
magnetometers: 
  x: 0.0794057324529
  y: -0.332368224859
  z: 0.555708646774
---
header: 
  seq: 1246
  stamp: 
    secs: 1584993421
    nsecs: 553860202
  frame_id: "imu"
frame_id: ''
accelerometers: 
  x: -0.0344170986726
  y: 0.0145174162644
  z: -9.80512556691
gyroscopes: 
  x: -0.00400317646563
  y: -0.00117959117051
  z: -0.00013852948905
magnetometers: 
  x: 0.0794384926558
  y: -0.332693129778
  z: 0.555543124676
---
header: 
  seq: 1247
  stamp: 
    secs: 1584993421
    nsecs: 565909405
  frame_id: "imu"
frame_id: ''
accelerometers: 
  x: -0.0346807682772
  y: 0.0107662561705
  z: -9.80636241523
gyroscopes: 
  x: -0.00428219977766
  y: -0.00143915601075
  z: -0.000548655865714
magnetometers: 
  x: 0.0801387131214
  y: -0.33276194334
  z: 0.555316329002
---
header: 
  seq: 1248
  stamp: 
    secs: 1584993421
    nsecs: 577878103
  frame_id: "imu"
frame_id: ''
accelerometers: 
  x: -0.0364986838698
  y: 0.0124132082435
  z: -9.81161609797
gyroscopes: 
  x: -0.00431325333193
  y: -0.00182733184192
  z: -0.000538789026905
magnetometers: 
  x: 0.0801369696856
  y: -0.332902312279
  z: 0.555487155914
---
header: 
  seq: 1249
  stamp: 
    secs: 1584993421
    nsecs: 583864238
  frame_id: "imu"
frame_id: ''
accelerometers: 
  x: -0.0358010410114
  y: 0.0128467979048
  z: -9.80823288528
gyroscopes: 
  x: -0.00320703117177
  y: -0.000830347707961
  z: -0.000289065763354
magnetometers: 
  x: 0.0796691700816
  y: -0.332809567451
  z: 0.555575609207
---
header: 
  seq: 1250
  stamp: 
    secs: 1584993421
    nsecs: 595861209
  frame_id: "imu"
frame_id: ''
accelerometers: 
  x: -0.0383727386799
  y: 0.0150295179469
  z: -9.80726842416
gyroscopes: 
  x: -0.00456072110683
  y: -0.00123368913773
  z: -0.000537885294762
magnetometers: 
  x: 0.0796602666378
  y: -0.33251106739
  z: 0.555890738964
---
header: 
  seq: 1251
  stamp: 
    secs: 1584993421
    nsecs: 607867448
  frame_id: "imu"
frame_id: ''
accelerometers: 
  x: -0.0375060730973
  y: 0.0145980186364
  z: -9.80716905544
gyroscopes: 
  x: -0.00419426104054
  y: -0.000956618168857
  z: -0.000281519460259
magnetometers: 
  x: 0.0791002362967
  y: -0.332730025053
  z: 0.555912613869
---
header: 
  seq: 1252
  stamp: 
    secs: 1584993421
    nsecs: 613857448
  frame_id: "imu"
frame_id: ''
accelerometers: 
  x: -0.0374574710155
  y: 0.013663271095
  z: -9.80797920278
gyroscopes: 
  x: -0.00440787989646
  y: -0.00142204784788
  z: -0.0011440058006
magnetometers: 
  x: 0.0793794393539
  y: -0.332340568304
  z: 0.556053161621
---
header: 
  seq: 1253
  stamp: 
    secs: 1584993421
    nsecs: 625901507
  frame_id: "imu"
frame_id: ''
accelerometers: 
  x: -0.0371605430287
  y: 0.013906028059
  z: -9.8072695932
gyroscopes: 
  x: -0.00336809153669
  y: -0.00129674689379
  z: -0.00036063749576
magnetometers: 
  x: 0.0790801271796
  y: -0.332666516304
  z: 0.555670320988
---
header: 
  seq: 1254
  stamp: 
    secs: 1584993421
    nsecs: 637897499
  frame_id: "imu"
frame_id: ''
accelerometers: 
  x: -0.035422690952
  y: 0.015425150218
  z: -9.80919851544
gyroscopes: 
  x: -0.00427898485214
  y: -0.00104281795211
  z: -0.000810812343843
magnetometers: 
  x: 0.078944131732
  y: -0.332752585411
  z: 0.555601239204
---
header: 
  seq: 1255
  stamp: 
    secs: 1584993421
    nsecs: 649909934
  frame_id: "imu"
frame_id: ''
accelerometers: 
  x: -0.0353292108321
  y: 0.0209740473412
  z: -9.80605554124
gyroscopes: 
  x: -0.00351043487899
  y: -0.000517139444128
  z: -0.000641339400318
magnetometers: 
  x: 0.0794649720192
  y: -0.332781493664
  z: 0.555655181408
---
header: 
  seq: 1256
  stamp: 
    secs: 1584993421
    nsecs: 655833252
  frame_id: "imu"
frame_id: ''
accelerometers: 
  x: -0.034399508217
  y: 0.0224746611625
  z: -9.80981577055
gyroscopes: 
  x: -0.00501486379653
  y: -0.000722345197573
  z: 0.000261309498455
magnetometers: 
  x: 0.0795790478587
  y: -0.332110196352
  z: 0.555413424969
---
header: 
  seq: 1257
  stamp: 
    secs: 1584993421
    nsecs: 667909244
  frame_id: "imu"
frame_id: ''
accelerometers: 
  x: -0.0367063626705
  y: 0.0218466494742
  z: -9.8087729835
gyroscopes: 
  x: -0.00467025768012
  y: -0.00132677680813
  z: -0.0012427381007
magnetometers: 
  x: 0.0801203623414
  y: -0.331848174334
  z: 0.555500566959
---
header: 
  seq: 1258
  stamp: 
    secs: 1584993421
    nsecs: 679902842
  frame_id: "imu"
frame_id: ''
accelerometers: 
  x: -0.0418593934856
  y: 0.013812336735
  z: -9.80975965645
gyroscopes: 
  x: -0.00449452875182
  y: -0.00103673001286
  z: -0.00183578708675
magnetometers: 
  x: 0.0803227797151
  y: -0.331985503435
  z: 0.555740296841
---
header: 
  seq: 1259
  stamp: 
    secs: 1584993421
    nsecs: 685905044
  frame_id: "imu"
frame_id: ''
accelerometers: 
  x: -0.0421404617496
  y: 0.0078310760765
  z: -9.8077208441
gyroscopes: 
  x: -0.00422099931166
  y: -0.00134428427555
  z: -0.000775629188865
magnetometers: 
  x: 0.0798240527511
  y: -0.33246961236
  z: 0.55563133955
---
header: 
  seq: 1260
  stamp: 
    secs: 1584993421
    nsecs: 697876104
  frame_id: "imu"
frame_id: ''
accelerometers: 
  x: -0.0422132210251
  y: 0.00867771721781
  z: -9.80605144958
gyroscopes: 
  x: -0.00444905785844
  y: -0.000742464326322
  z: -0.000421427714173
magnetometers: 
  x: 0.0796982869506
  y: -0.332818329334
  z: 0.55570846796
---
header: 
  seq: 1261
  stamp: 
    secs: 1584993421
    nsecs: 709909397
  frame_id: "imu"
frame_id: ''
accelerometers: 
  x: -0.0404143366433
  y: 0.0117874147701
  z: -9.80534359358
gyroscopes: 
  x: -0.00396880321205
  y: -6.40133075649e-05
  z: -1.79697090061e-05
magnetometers: 
  x: 0.0795555338264
  y: -0.333531796932
  z: 0.555616140366
---
header: 
  seq: 1262
  stamp: 
    secs: 1584993421
    nsecs: 715905110
  frame_id: "imu"
frame_id: ''
accelerometers: 
  x: -0.0357928782545
  y: 0.0149427792367
  z: -9.80441069664
gyroscopes: 
  x: -0.0043193786405
  y: -0.000879831379279
  z: -0.000361039245035
magnetometers: 
  x: 0.0796564817429
  y: -0.33388993144
  z: 0.555772840977
---
header: 
  seq: 1263
  stamp: 
    secs: 1584993421
    nsecs: 727858917
  frame_id: "imu"
frame_id: ''
accelerometers: 
  x: -0.0306288488382
  y: 0.0204228112332
  z: -9.80769980131
gyroscopes: 
  x: -0.00442507583648
  y: -0.000682099140249
  z: -0.00109997252002
magnetometers: 
  x: 0.0798283368349
  y: -0.334120035172
  z: 0.555846750736
---
header: 
  seq: 1264
  stamp: 
    secs: 1584993421
    nsecs: 739900657
  frame_id: "imu"
frame_id: ''
accelerometers: 
  x: -0.0307072021708
  y: 0.0187805273438
  z: -9.80783657944
gyroscopes: 
  x: -0.00419407756999
  y: -0.000272361648967
  z: -0.000368603272364
magnetometers: 
  x: 0.080094859004
  y: -0.333527386189
  z: 0.555879294872
---
header: 
  seq: 1265
  stamp: 
    secs: 1584993421
    nsecs: 745909680
  frame_id: "imu"
frame_id: ''
accelerometers: 
  x: -0.0310590706487
  y: 0.0200780118169
  z: -9.80789620067
gyroscopes: 
  x: -0.00372068956494
  y: -0.000542137539014
  z: -0.000946296029724
magnetometers: 
  x: 0.0799425765872
  y: -0.333196252584
  z: 0.555898666382
---
header: 
  seq: 1266
  stamp: 
    secs: 1584993421
    nsecs: 757920429
  frame_id: "imu"
frame_id: ''
accelerometers: 
  x: -0.0348218001661
  y: 0.0164334927185
  z: -9.80965561156
gyroscopes: 
  x: -0.00440035341308
  y: -0.000471309642307
  z: -0.00088547921041
magnetometers: 
  x: 0.0802280753851
  y: -0.333219021559
  z: 0.555867254734
---
header: 
  seq: 1267
  stamp: 
    secs: 1584993421
    nsecs: 769920041
  frame_id: "imu"
frame_id: ''
accelerometers: 
  x: -0.0405773497518
  y: 0.0115691666263
  z: -9.80893548059
gyroscopes: 
  x: -0.00431379536167
  y: -0.00124264054466
  z: -0.00124766142108
magnetometers: 
  x: 0.080568946898
  y: -0.333146601915
  z: 0.555747687817
---
header: 
  seq: 1268
  stamp: 
    secs: 1584993421
    nsecs: 775905403
  frame_id: "imu"
frame_id: ''
accelerometers: 
  x: -0.0415187587878
  y: 0.0106543088122
  z: -9.80618647414
gyroscopes: 
  x: -0.00492593692616
  y: -0.00202094460838
  z: -0.00053775892593
magnetometers: 
  x: 0.0799056664109
  y: -0.332888662815
  z: 0.555664658546
---
header: 
  seq: 1269
  stamp: 
    secs: 1584993421
    nsecs: 787879353
  frame_id: "imu"
frame_id: ''
accelerometers: 
  x: -0.0391850505766
  y: 0.0122008578342
  z: -9.8034883211
gyroscopes: 
  x: -0.00505737215281
  y: -0.000751577550545
  z: -0.00144257536158
magnetometers: 
  x: 0.079623542726
  y: -0.332419604063
  z: 0.555558264256
---
header: 
  seq: 1270
  stamp: 
    secs: 1584993421
    nsecs: 799911433
  frame_id: "imu"
frame_id: ''
accelerometers: 
  x: -0.0374532857474
  y: 0.0137432215881
  z: -9.80494787226
gyroscopes: 
  x: -0.00440335553139
  y: -0.00112714455463
  z: -0.00140422850382
magnetometers: 
  x: 0.0795120075345
  y: -0.332581430674
  z: 0.555680930614
---
header: 
  seq: 1271
  stamp: 
    secs: 1584993421
    nsecs: 805901692
  frame_id: "imu"
frame_id: ''
accelerometers: 
  x: -0.0331677493488
  y: 0.0136289806663
  z: -9.8089436639
gyroscopes: 
  x: -0.0036429441534
  y: -0.00114679848775
  z: -0.00101651693694
magnetometers: 
  x: 0.079561829567
  y: -0.332663625479
  z: 0.555905938148
---
header: 
  seq: 1272
  stamp: 
    secs: 1584993421
    nsecs: 817901241
  frame_id: "imu"
frame_id: ''
accelerometers: 
  x: -0.0314614614541
  y: 0.0151238234756
  z: -9.81015946943
gyroscopes: 
  x: -0.00506572145969
  y: -0.000950408109929
  z: -0.00133429153357
magnetometers: 
  x: 0.0793424397707
  y: -0.332689642906
  z: 0.555915951729
---
header: 
  seq: 1273
  stamp: 
    secs: 1584993421
    nsecs: 829810460
  frame_id: "imu"
frame_id: ''
accelerometers: 
  x: -0.0332565624267
  y: 0.0163152834411
  z: -9.80823171623
gyroscopes: 
  x: -0.00396840227768
  y: -0.00162801949773
  z: -0.000266339222435
magnetometers: 
  x: 0.0794154927135
  y: -0.332844614983
  z: 0.555716574192
---
header: 
  seq: 1274
  stamp: 
    secs: 1584993421
    nsecs: 841859588
  frame_id: "imu"
frame_id: ''
accelerometers: 
  x: -0.0350374864601
  y: 0.0189800822036
  z: -9.81135423217
gyroscopes: 
  x: -0.00541308242828
  y: -0.000107788830064
  z: 0.00050064723473
magnetometers: 
  x: 0.0792070925236
  y: -0.332845181227
  z: 0.555681586266
---
header: 
  seq: 1275
  stamp: 
    secs: 1584993421
    nsecs: 847820430
  frame_id: "imu"
frame_id: ''
accelerometers: 
  x: -0.0404708115043
  y: 0.0171655036374
  z: -9.80790204589
gyroscopes: 
  x: -0.00448751449585
  y: -0.00094941817224
  z: -0.000147363723954
magnetometers: 
  x: 0.0793824121356
  y: -0.332655727863
  z: 0.556010067463
---
header: 
  seq: 1276
  stamp: 
    secs: 1584993421
    nsecs: 859859122
  frame_id: "imu"
frame_id: ''
accelerometers: 
  x: -0.0399302383542
  y: 0.0165570471746
  z: -9.80644833995
gyroscopes: 
  x: -0.00463910121471
  y: 0.000276003178442
  z: -0.00135356606916
magnetometers: 
  x: 0.0798654705286
  y: -0.332525312901
  z: 0.556098878384
---
header: 
  seq: 1277
  stamp: 
    secs: 1584993421
    nsecs: 871855261
  frame_id: "imu"
frame_id: ''
accelerometers: 
  x: -0.0422577451534
  y: 0.0179719851566
  z: -9.80558792373
gyroscopes: 
  x: -0.00443203980103
  y: -0.000858001585584
  z: 7.21517135389e-05
magnetometers: 
  x: 0.0798307955265
  y: -0.332509249449
  z: 0.556004405022
---
header: 
  seq: 1278
  stamp: 
    secs: 1584993421
    nsecs: 877855351
  frame_id: "imu"
frame_id: ''
accelerometers: 
  x: -0.0395796256851
  y: 0.019758545488
  z: -9.8087835049
gyroscopes: 
  x: -0.00476230308414
  y: -0.000425399601227
  z: 0.000419406511355
magnetometers: 
  x: 0.0795659646392
  y: -0.33249220252
  z: 0.555962026119
---
header: 
  seq: 1279
  stamp: 
    secs: 1584993421
    nsecs: 889809233
  frame_id: "imu"
frame_id: ''
accelerometers: 
  x: -0.0374538451532
  y: 0.019653119202
  z: -9.80733973583
gyroscopes: 
  x: -0.00503428513184
  y: -0.000452145846793
  z: 5.91832504142e-05
magnetometers: 
  x: 0.0795349553227
  y: -0.3319054842
  z: 0.555872499943
---
header: 
  seq: 1280
  stamp: 
    secs: 1584993421
    nsecs: 901837453
  frame_id: "imu"
frame_id: ''
accelerometers: 
  x: -0.0344924563306
  y: 0.0181081216747
  z: -9.81064812973
gyroscopes: 
  x: -0.00464391289279
  y: -0.000469003454782
  z: -0.000581816129852
magnetometers: 
  x: 0.0792328342795
  y: -0.331646770239
  z: 0.555964767933
---
header: 
  seq: 1281
  stamp: 
    secs: 1584993421
    nsecs: 913876619
  frame_id: "imu"
frame_id: ''
accelerometers: 
  x: -0.0345871602932
  y: 0.0169651873008
  z: -9.81088661466
gyroscopes: 
  x: -0.00458905054256
  y: -0.000764110009186
  z: -0.00106683617923
magnetometers: 
  x: 0.0789902508259
  y: -0.331929564476
  z: 0.555750846863
---
header: 
  seq: 1282
  stamp: 
    secs: 1584993421
    nsecs: 919882411
  frame_id: "imu"
frame_id: ''
accelerometers: 
  x: -0.0364909640709
  y: 0.0161702660719
  z: -9.81251743073
gyroscopes: 
  x: -0.00321315391921
  y: -0.00129122578073
  z: 0.000317549245665
magnetometers: 
  x: 0.0790356919169
  y: -0.331943273544
  z: 0.555488944054
---
header: 
  seq: 1283
  stamp: 
    secs: 1584993421
    nsecs: 931909433
  frame_id: "imu"
frame_id: ''
accelerometers: 
  x: -0.0496115145829
  y: -0.00753201093154
  z: -9.80937387201
gyroscopes: 
  x: -0.00399556569755
  y: -0.00099706731271
  z: 0.000366136839148
magnetometers: 
  x: 0.0795531198382
  y: -0.332065850496
  z: 0.55570846796
---
header: 
  seq: 1284
  stamp: 
    secs: 1584993421
    nsecs: 937843422
  frame_id: "imu"
frame_id: ''
accelerometers: 
  x: -0.0769130250796
  y: -0.0612920611702
  z: -9.80595734156
gyroscopes: 
  x: -0.0046896529384
  y: -0.000555551843718
  z: -0.000577340833843
magnetometers: 
  x: 0.0798893272877
  y: -0.332534998655
  z: 0.555624902248
---
header: 
  seq: 1285
  stamp: 
    secs: 1584993421
    nsecs: 949899939
  frame_id: "imu"
frame_id: ''
accelerometers: 
  x: -0.0411926229728
  y: 0.0210171763801
  z: -9.80268168089
gyroscopes: 
  x: -0.00355074787512
  y: 0.000433710287325
  z: -0.00239181006327
magnetometers: 
  x: 0.0797822922468
  y: -0.332819372416
  z: 0.555689930916
---
header: 
  seq: 1286
  stamp: 
    secs: 1584993421
    nsecs: 961906160
  frame_id: "imu"
frame_id: ''
accelerometers: 
  x: -0.0379386421286
  y: 0.0228382840102
  z: -9.80633377366
gyroscopes: 
  x: -0.00415215454996
  y: 0.000109146814793
  z: -0.00259279808961
magnetometers: 
  x: 0.0796065032482
  y: -0.332638144493
  z: 0.555620968342
---
header: 
  seq: 1287
  stamp: 
    secs: 1584993421
    nsecs: 967750262
  frame_id: "imu"
frame_id: ''
accelerometers: 
  x: -0.0309118944301
  y: 0.0244125224734
  z: -9.80940894332
gyroscopes: 
  x: -0.00512942764908
  y: -0.000375030271243
  z: -0.00258597405627
magnetometers: 
  x: 0.0798268467188
  y: -0.332358330488
  z: 0.555307865143
---
header: 
  seq: 1288
  stamp: 
    secs: 1584993421
    nsecs: 979807656
  frame_id: "imu"
frame_id: ''
accelerometers: 
  x: -0.026782030367
  y: 0.0280481801286
  z: -9.80947557881
gyroscopes: 
  x: -0.00479327049106
  y: -0.000230889330851
  z: -0.00236723944545
magnetometers: 
  x: 0.0798352435231
  y: -0.332084327936
  z: 0.555259764194
---
header: 
  seq: 1289
  stamp: 
    secs: 1584993421
    nsecs: 991822150
  frame_id: "imu"
frame_id: ''
accelerometers: 
  x: -0.0255032334697
  y: 0.0258194072964
  z: -9.80816040456
gyroscopes: 
  x: -0.00411433167756
  y: -0.000188049394637
  z: -0.000557695690077
magnetometers: 
  x: 0.0797279328108
  y: -0.331901371479
  z: 0.555419325829
---
header: 
  seq: 1290
  stamp: 
    secs: 1584993421
    nsecs: 997820197
  frame_id: "imu"
frame_id: ''
accelerometers: 
  x: -0.0284065103133
  y: 0.0272861485309
  z: -9.80907108967
gyroscopes: 
  x: -0.00435977336019
  y: -0.000998669769615
  z: -0.00113729259465
magnetometers: 
  x: 0.079667545855
  y: -0.331634223461
  z: 0.555351018906
---
header: 
  seq: 1291
  stamp: 
    secs: 1584993422
    nsecs:   9817430
  frame_id: "imu"
frame_id: ''
accelerometers: 
  x: -0.0274420880112
  y: 0.028373322713
  z: -9.81048329455
gyroscopes: 
  x: -0.00402036635205
  y: -0.00113172538113
  z: -0.000806904863566
magnetometers: 
  x: 0.0794943794608
  y: -0.33177280426
  z: 0.555421888828
---
header: 
  seq: 1292
  stamp: 
    secs: 1584993422
    nsecs:  21735803
  frame_id: "imu"
frame_id: ''
accelerometers: 
  x: -0.0337634205368
  y: 0.0295619274261
  z: -9.81059318467
gyroscopes: 
  x: -0.00474986480549
  y: 0.000135763693834
  z: -0.00149875122588
magnetometers: 
  x: 0.0793373957276
  y: -0.331819832325
  z: 0.555543899536
---
header: 
  seq: 1293
  stamp: 
    secs: 1584993422
    nsecs:  33807896
  frame_id: "imu"
frame_id: ''
accelerometers: 
  x: -0.0387920646371
  y: 0.0269783657899
  z: -9.80584745145
gyroscopes: 
  x: -0.0033797537908
  y: -0.000704758625943
  z: -0.00167225231417
magnetometers: 
  x: 0.078586101532
  y: -0.331784963608
  z: 0.555409610271
---
header: 
  seq: 1294
  stamp: 
    secs: 1584993422
    nsecs:  39814929
  frame_id: "imu"
frame_id: ''
accelerometers: 
  x: -0.0396237662209
  y: 0.0179657597701
  z: -9.80417747241
gyroscopes: 
  x: -0.004070809111
  y: -0.000809311517514
  z: -0.00123670545872
magnetometers: 
  x: 0.0772371888161
  y: -0.331999450922
  z: 0.55538213253
---
header: 
  seq: 1295
  stamp: 
    secs: 1584993422
    nsecs:  51820459
  frame_id: "imu"
frame_id: ''
accelerometers: 
  x: -0.0379237824862
  y: 0.0137876566682
  z: -9.80695395138
gyroscopes: 
  x: -0.00377242849208
  y: -0.000752341060434
  z: -0.00118439143989
magnetometers: 
  x: 0.0780989527702
  y: -0.332005739212
  z: 0.555624365807
---
header: 
  seq: 1296
  stamp: 
    secs: 1584993422
    nsecs:  63821896
  frame_id: "imu"
frame_id: ''
accelerometers: 
  x: -0.0381822302097
  y: 0.00743343907802
  z: -9.81026585241
gyroscopes: 
  x: -0.00369283277541
  y: 0.000241526387981
  z: 6.84183178237e-05
magnetometers: 
  x: 0.0779953971505
  y: -0.331936269999
  z: 0.555905938148
---
header: 
  seq: 1297
  stamp: 
    secs: 1584993422
    nsecs:  69809825
  frame_id: "imu"
frame_id: ''
accelerometers: 
  x: -0.0313544414327
  y: 0.00846348195373
  z: -9.81202877043
gyroscopes: 
  x: -0.00439083669335
  y: -2.65830894932e-05
  z: -0.000595246325247
magnetometers: 
  x: 0.0781982839108
  y: -0.331805586815
  z: 0.556058466434
---
header: 
  seq: 1298
  stamp: 
    secs: 1584993422
    nsecs:  81845079
  frame_id: "imu"
frame_id: ''
accelerometers: 
  x: -0.0314116332463
  y: 0.0138557717346
  z: -9.81283541064
gyroscopes: 
  x: -0.00466150697321
  y: -0.000877563492395
  z: 0.000374383846065
magnetometers: 
  x: 0.0784670189023
  y: -0.331850916147
  z: 0.555776774883
---
header: 
  seq: 1299
  stamp: 
    secs: 1584993422
    nsecs:  93814663
  frame_id: "imu"
frame_id: ''
accelerometers: 
  x: -0.0347291283304
  y: 0.0171993556746
  z: -9.80656816694
gyroscopes: 
  x: -0.00438512582332
  y: -0.00151208485477
  z: -0.000669352186378
magnetometers: 
  x: 0.0786249414086
  y: -0.332114875317
  z: 0.55593341589
---
header: 
  seq: 1300
  stamp: 
    secs: 1584993422
    nsecs:  99818002
  frame_id: "imu"
frame_id: ''
accelerometers: 
  x: -0.0356037968397
  y: 0.0239496770349
  z: -9.80323639216
gyroscopes: 
  x: -0.00469166366383
  y: -0.000470357772429
  z: -0.000508780474775
magnetometers: 
  x: 0.0791891366243
  y: -0.332200497389
  z: 0.555827498436
---
header: 
  seq: 1301
  stamp: 
    secs: 1584993422
    nsecs: 111864147
  frame_id: "imu"
frame_id: ''
accelerometers: 
  x: -0.0387935533413
  y: 0.0217145452439
  z: -9.80394600174
gyroscopes: 
  x: -0.00448371469975
  y: -0.00108453142457
  z: -4.88240038976e-06
magnetometers: 
  x: 0.0783593729138
  y: -0.332041293383
  z: 0.555868208408
---
header: 
  seq: 1302
  stamp: 
    secs: 1584993422
    nsecs: 123858086
  frame_id: "imu"
frame_id: ''
accelerometers: 
  x: -0.0414453967241
  y: 0.0088052548709
  z: -9.80529800087
gyroscopes: 
  x: -0.00416744779795
  y: 0.000473228108604
  z: -9.11791867111e-05
magnetometers: 
  x: 0.0785533860326
  y: -0.332204937935
  z: 0.556018054485
---
header: 
  seq: 1303
  stamp: 
    secs: 1584993422
    nsecs: 129853860
