header: 
  seq: 9867
  stamp: 
    secs: 1586896653
    nsecs: 591509860
  frame_id: "imu"
frame_id: ''
accelerometers: 
  x: -0.100041031018
  y: -0.0667638801774
  z: 9.81711644896
gyroscopes: 
  x: -0.00506604881957
  y: -0.00207612942904
  z: 0.00109220331069
magnetometers: 
  x: 0.102342501283
  y: -0.115691840649
  z: -0.604139328003
---
header: 
  seq: 9868
  stamp: 
    secs: 1586896653
    nsecs: 597472503
  frame_id: "imu"
frame_id: ''
accelerometers: 
  x: -0.101521862426
  y: -0.0709010165148
  z: 9.81762264491
gyroscopes: 
  x: -0.00518458941951
  y: -0.000934629351832
  z: 0.000395878480049
magnetometers: 
  x: 0.102395698428
  y: -0.115236192942
  z: -0.604170203209
---
header: 
  seq: 9869
  stamp: 
    secs: 1586896653
    nsecs: 609570999
  frame_id: "imu"
frame_id: ''
accelerometers: 
  x: -0.103143015621
  y: -0.0787604887104
  z: 9.82103274562
gyroscopes: 
  x: -0.00547778047621
  y: -0.00104747351725
  z: 0.0015923040919
magnetometers: 
  x: 0.102666459978
  y: -0.115175142884
  z: -0.604185044765
---
header: 
  seq: 9870
  stamp: 
    secs: 1586896653
    nsecs: 621611118
  frame_id: "imu"
frame_id: ''
accelerometers: 
  x: -0.0998176249248
  y: -0.0799134672709
  z: 9.81816274314
gyroscopes: 
  x: -0.00561474403366
  y: -0.000409403641243
  z: 0.00071468326496
magnetometers: 
  x: 0.102866411209
  y: -0.115464769304
  z: -0.604330658913
---
header: 
  seq: 9871
  stamp: 
    secs: 1586896653
    nsecs: 627606366
  frame_id: "imu"
frame_id: ''
accelerometers: 
  x: -0.094467998392
  y: -0.0782313594029
  z: 9.81736662433
gyroscopes: 
  x: -0.00546634290367
  y: -0.00113764929119
  z: 0.000464791228296
magnetometers: 
  x: 0.102885484695
  y: -0.116203777492
  z: -0.604469716549
---
header: 
  seq: 9872
  stamp: 
    secs: 1586896653
    nsecs: 639543025
  frame_id: "imu"
frame_id: ''
accelerometers: 
  x: -0.0901442077756
  y: -0.0738604919415
  z: 9.82021207688
gyroscopes: 
  x: -0.00575652299449
  y: -0.00188013771549
  z: 0.000931830843911
magnetometers: 
  x: 0.102881126106
  y: -0.116496950388
  z: -0.604469239712
---
header: 
  seq: 9873
  stamp: 
    secs: 1586896653
    nsecs: 651476476
  frame_id: "imu"
frame_id: ''
accelerometers: 
  x: -0.0775562000877
  y: -0.0708647259253
  z: 9.7738133138
gyroscopes: 
  x: -0.00192712782882
  y: 0.0102305179462
  z: -0.0104187633842
magnetometers: 
  x: 0.103042088449
  y: -0.116321340203
  z: -0.604535698891
---
header: 
  seq: 9874
  stamp: 
    secs: 1586896653
    nsecs: 657751015
  frame_id: "imu"
frame_id: ''
accelerometers: 
  x: -0.138065696045
  y: -0.100190495092
  z: 9.87888872226
gyroscopes: 
  x: -0.00573751982301
  y: -0.0016389983939
  z: 0.00237766490318
magnetometers: 
  x: 0.103266306221
  y: -0.115850575268
  z: -0.604576349258
---
header: 
  seq: 9875
  stamp: 
    secs: 1586896653
    nsecs: 669623533
  frame_id: "imu"
frame_id: ''
accelerometers: 
  x: -0.0574327553936
  y: -0.0742007887125
  z: 9.84589596872
gyroscopes: 
  x: -0.00423225294799
  y: 0.00272541400045
  z: -0.00343225896358
magnetometers: 
  x: 0.10343118757
  y: -0.115425847471
  z: -0.604658007622
---
header: 
  seq: 9876
  stamp: 
    secs: 1586896653
    nsecs: 681662530
  frame_id: "imu"
frame_id: ''
accelerometers: 
  x: -0.108804932107
  y: -0.102905781932
  z: 9.77227952836
gyroscopes: 
  x: -0.00408841762692
  y: -0.00105571479071
  z: 0.00262025883421
magnetometers: 
  x: 0.103275492787
  y: -0.115147709846
  z: -0.605107784271
---
header: 
  seq: 9877
  stamp: 
    secs: 1586896653
    nsecs: 687500650
  frame_id: "imu"
frame_id: ''
accelerometers: 
  x: -0.0846820607791
  y: -0.106906414142
  z: 9.85236545699
gyroscopes: 
  x: -0.00339759862982
  y: 0.00291200214997
  z: 0.00141357502434
magnetometers: 
  x: 0.103035449982
  y: -0.115130260587
  z: -0.605399012566
---
header: 
  seq: 9878
  stamp: 
    secs: 1586896653
    nsecs: 699893463
  frame_id: "imu"
frame_id: ''
accelerometers: 
  x: -0.113479700718
  y: -0.113516498198
  z: 9.82589362965
gyroscopes: 
  x: -0.0039160172455
  y: -0.00109757576138
  z: 0.0037881124299
magnetometers: 
  x: 0.103039398789
  y: -0.115390203893
  z: -0.605130434036
---
header: 
  seq: 9879
  stamp: 
    secs: 1586896653
    nsecs: 717543455
  frame_id: "imu"
frame_id: ''
accelerometers: 
  x: -0.106816059844
  y: -0.109853427379
  z: 9.81197850155
gyroscopes: 
  x: -0.0035933018662
  y: -0.000150549021782
  z: 0.00355786830187
magnetometers: 
  x: 0.103236503899
  y: -0.115852221847
  z: -0.604990780354
---
header: 
  seq: 9880
  stamp: 
    secs: 1586896653
    nsecs: 723457723
  frame_id: "imu"
frame_id: ''
accelerometers: 
  x: -0.116254818854
  y: -0.10168258768
  z: 9.82637878282
gyroscopes: 
  x: -0.0036725201644
  y: -0.000225356488954
  z: 0.00608461815864
magnetometers: 
  x: 0.103283122182
  y: -0.116278983653
  z: -0.605069756508
---
header: 
  seq: 9881
  stamp: 
    secs: 1586896653
    nsecs: 729548977
  frame_id: "imu"
frame_id: ''
accelerometers: 
  x: -0.109992068665
  y: -0.0931834932731
  z: 9.80646061491
gyroscopes: 
  x: -0.00367285404354
  y: 0.00416156835854
  z: 0.00187905563507
magnetometers: 
  x: 0.10341437161
  y: -0.116421319544
  z: -0.604901075363
---
header: 
  seq: 9882
  stamp: 
    secs: 1586896653
    nsecs: 741734915
  frame_id: "imu"
frame_id: ''
accelerometers: 
  x: -0.100921412315
  y: -0.081813199945
  z: 9.84856957184
gyroscopes: 
  x: -0.0045722569339
  y: 0.00323538365774
  z: 0.00315533368848
magnetometers: 
  x: 0.103426709771
  y: -0.116487666965
  z: -0.604883372784
---
header: 
  seq: 9883
  stamp: 
    secs: 1586896653
    nsecs: 747562014
  frame_id: "imu"
frame_id: ''
accelerometers: 
  x: -0.0938080731786
  y: -0.0683026842844
  z: 9.83478186951
gyroscopes: 
  x: -0.00439273845404
  y: 0.000163920019986
  z: 0.00303984479979
magnetometers: 
  x: 0.103196814656
  y: -0.116441756487
  z: -0.60494530201
---
header: 
  seq: 9884
  stamp: 
    secs: 1586896653
    nsecs: 759983953
  frame_id: "imu"
frame_id: ''
accelerometers: 
  x: -0.0803712027095
  y: -0.0638492576726
  z: 9.80267758924
gyroscopes: 
  x: -0.00369299366139
  y: -0.00166661571711
  z: 0.00155915669166
magnetometers: 
  x: 0.103014223278
  y: -0.116154693067
  z: -0.604971349239
---
header: 
  seq: 9885
  stamp: 
    secs: 1586896653
    nsecs: 783782641
  frame_id: "imu"
frame_id: ''
accelerometers: 
  x: -0.0762632102682
  y: -0.0626770127226
  z: 9.81999697283
gyroscopes: 
  x: -0.00334781524725
  y: -0.00240869051777
  z: 0.000960649223998
magnetometers: 
  x: 0.102797448635
  y: -0.115678496659
  z: -0.605053007603
---
header: 
  seq: 9886
  stamp: 
    secs: 1586896653
    nsecs: 783866767
  frame_id: "imu"
frame_id: ''
accelerometers: 
  x: -0.0781764508779
  y: -0.051572453092
  z: 9.81588310777
gyroscopes: 
  x: -0.00453914981335
  y: -0.00283058197238
  z: 0.00218452746049
magnetometers: 
  x: 0.102739714086
  y: -0.115588836372
  z: -0.605187177658
---
header: 
  seq: 9887
  stamp: 
    secs: 1586896653
    nsecs: 789628065
  frame_id: "imu"
frame_id: ''
accelerometers: 
  x: -0.0803682253011
  y: -0.041891839017
  z: 9.80556804998
gyroscopes: 
  x: -0.00372435571626
  y: -0.00282232137397
  z: 0.00194472761359
magnetometers: 
  x: 0.102711595595
  y: -0.115668341517
  z: -0.605106532574
---
header: 
  seq: 9888
  stamp: 
    secs: 1586896653
    nsecs: 801781254
  frame_id: "imu"
frame_id: ''
accelerometers: 
  x: -0.0850260245117
  y: -0.0423752660193
  z: 9.82708137813
gyroscopes: 
  x: -0.00389334140345
  y: -0.0012364576105
  z: 0.000345140782883
magnetometers: 
  x: 0.102407507598
  y: -0.115328244865
  z: -0.605071544647
---
header: 
  seq: 9889
  stamp: 
    secs: 1586896653
    nsecs: 813638666
  frame_id: "imu"
frame_id: ''
accelerometers: 
  x: -0.0855240736943
  y: -0.0515469898572
  z: 9.83938556391
gyroscopes: 
  x: -0.00438850512728
  y: -0.00135205651168
  z: 0.000496618798934
magnetometers: 
  x: 0.10237108916
  y: -0.114823788404
  z: -0.605005562305
---
header: 
  seq: 9890
  stamp: 
    secs: 1586896653
    nsecs: 819555797
  frame_id: "imu"
frame_id: ''
accelerometers: 
  x: -0.0867918468741
  y: -0.0624507433858
  z: 9.80001041586
gyroscopes: 
  x: -0.00398169644177
  y: -0.00285193137825
  z: -0.000379875651561
magnetometers: 
  x: 0.102095715702
  y: -0.115113481879
  z: -0.605020701885
---
header: 
  seq: 9891
  stamp: 
    secs: 1586896653
    nsecs: 831750270
  frame_id: "imu"
frame_id: ''
accelerometers: 
  x: -0.0899944514409
  y: -0.0691661098804
  z: 9.79242916695
gyroscopes: 
  x: -0.00406074989587
  y: -0.00213407468982
  z: -0.00097249110695
magnetometers: 
  x: 0.102172158659
  y: -0.11519805342
  z: -0.605168700218
---
header: 
  seq: 9892
  stamp: 
    secs: 1586896653
    nsecs: 843660901
  frame_id: "imu"
frame_id: ''
accelerometers: 
  x: -0.0964001628979
  y: -0.0743958180943
  z: 9.82206851841
gyroscopes: 
  x: -0.00520458212122
  y: -0.00143158948049
  z: -0.000583331566304
magnetometers: 
  x: 0.102330237627
  y: -0.115620397031
  z: -0.605190396309
---
header: 
  seq: 9893
  stamp: 
    secs: 1586896653
    nsecs: 849629452
  frame_id: "imu"
frame_id: ''
accelerometers: 
  x: -0.100909968473
  y: -0.0756576273242
  z: 9.82632266872
gyroscopes: 
  x: -0.00418443698436
  y: -0.000192536215764
  z: -3.14367644023e-05
magnetometers: 
  x: 0.10197968781
  y: -0.115867488086
  z: -0.605246067047
---
header: 
  seq: 9894
  stamp: 
    secs: 1586896653
    nsecs: 861799826
  frame_id: "imu"
frame_id: ''
accelerometers: 
  x: -0.100969069115
  y: -0.0781523484831
  z: 9.82371453205
gyroscopes: 
  x: -0.00334296026267
  y: 0.000547506555449
  z: 0.000257309235167
magnetometers: 
  x: 0.102027595043
  y: -0.116095252335
  z: -0.605130493641
---
header: 
  seq: 9895
  stamp: 
    secs: 1586896653
    nsecs: 873781021
  frame_id: "imu"
frame_id: ''
accelerometers: 
  x: -0.109248821683
  y: -0.0839412523491
  z: 9.81857307751
gyroscopes: 
  x: -0.00393762998283
  y: -0.00121637212578
  z: 0.000925947446376
magnetometers: 
  x: 0.10283959657
  y: -0.115793228149
  z: -0.604904294014
---
header: 
  seq: 9896
  stamp: 
    secs: 1586896653
    nsecs: 879699404
  frame_id: "imu"
frame_id: ''
accelerometers: 
  x: -0.121543006657
  y: -0.0972930840164
  z: 9.80847137021
gyroscopes: 
  x: -0.00430413382128
  y: -0.00359548302367
  z: 4.3348496547e-05
magnetometers: 
  x: 0.103037178516
  y: -0.115390777588
  z: -0.605126738548
---
header: 
  seq: 9897
  stamp: 
    secs: 1586896653
    nsecs: 892008068
  frame_id: "imu"
frame_id: ''
accelerometers: 
  x: -0.13573117955
  y: -0.104369397345
  z: 9.80717840779
gyroscopes: 
  x: -0.00343511370011
  y: -0.00682747783139
  z: 0.000586667563766
magnetometers: 
  x: 0.102551609278
  y: -0.11579079181
  z: -0.605116665363
---
header: 
  seq: 9898
  stamp: 
    secs: 1586896653
    nsecs: 903866453
  frame_id: "imu"
frame_id: ''
accelerometers: 
  x: -0.138045228646
  y: -0.105094049224
  z: 9.83623732901
gyroscopes: 
  x: -0.00507617834955
  y: -0.00679780822247
  z: 0.00101843185257
magnetometers: 
  x: 0.102609246969
  y: -0.116019003093
  z: -0.604890882969
---
header: 
  seq: 9899
  stamp: 
    secs: 1586896653
    nsecs: 909593339
  frame_id: "imu"
frame_id: ''
accelerometers: 
  x: -0.121628648247
  y: -0.0935146888557
  z: 9.83408628846
gyroscopes: 
  x: -0.00355042261072
  y: -0.00490873353556
  z: 0.00181471509859
magnetometers: 
  x: 0.102280184627
  y: -0.115627415478
  z: -0.605205893517
---
header: 
  seq: 9900
  stamp: 
    secs: 1586896653
    nsecs: 921593663
  frame_id: "imu"
frame_id: ''
accelerometers: 
  x: -0.0898278627023
  y: -0.074270913073
  z: 9.81937036536
gyroscopes: 
  x: -0.00376185588539
  y: -0.0027011774946
  z: 0.00188956817146
magnetometers: 
  x: 0.10241945833
  y: -0.115470163524
  z: -0.605296134949
---
header: 
  seq: 9901
  stamp: 
    secs: 1586896653
    nsecs: 933554922
  frame_id: "imu"
frame_id: ''
accelerometers: 
  x: -0.0573011055377
  y: -0.052936873313
  z: 9.81563760858
gyroscopes: 
  x: -0.00413002399728
  y: 0.00166366598569
  z: 0.00128767604474
magnetometers: 
  x: 0.102604918182
  y: -0.115843683481
  z: -0.605210244656
---
header: 
  seq: 9902
  stamp: 
    secs: 1586896653
    nsecs: 939518989
  frame_id: "imu"
frame_id: ''
accelerometers: 
  x: -0.0362762504579
  y: -0.0438326845862
  z: 9.81055226814
gyroscopes: 
  x: -0.00489562191069
  y: 0.00231255427934
  z: 0.000142363860505
magnetometers: 
  x: 0.102835096419
  y: -0.115567453206
  z: -0.605171203613
---
header: 
  seq: 9903
  stamp: 
    secs: 1586896653
    nsecs: 951525051
  frame_id: "imu"
frame_id: ''
accelerometers: 
  x: -0.0259265140828
  y: -0.0440224076052
  z: 9.82315105295
gyroscopes: 
  x: -0.00315445428714
  y: 0.0038096208591
  z: -0.000906853238121
magnetometers: 
  x: 0.102594256401
  y: -0.11566028744
  z: -0.604958891869
---
header: 
  seq: 9904
  stamp: 
    secs: 1586896653
    nsecs: 963467516
  frame_id: "imu"
frame_id: ''
accelerometers: 
  x: -0.0471430147106
  y: -0.0561660142602
  z: 9.8081346856
gyroscopes: 
  x: -0.00147168710828
  y: 0.00150721264072
  z: -0.00364103144966
magnetometers: 
  x: 0.102190457284
  y: -0.115854129195
  z: -0.60542589426
---
header: 
  seq: 9905
  stamp: 
    secs: 1586896653
    nsecs: 969512302
  frame_id: "imu"
frame_id: ''
accelerometers: 
  x: -0.0688364441012
  y: -0.068404824918
  z: 9.83049030979
gyroscopes: 
  x: -0.00262694386765
  y: 0.000837710918859
  z: -0.00243891729042
magnetometers: 
  x: 0.102285996079
  y: -0.116194657981
  z: -0.605676054955
---
header: 
  seq: 9906
  stamp: 
    secs: 1586896653
    nsecs: 981489997
  frame_id: "imu"
frame_id: ''
accelerometers: 
  x: -0.091235647141
  y: -0.0659833653582
  z: 9.82327380254
gyroscopes: 
  x: -0.00315433298238
  y: 0.00032917180215
  z: -0.0028001551982
magnetometers: 
  x: 0.102368034422
  y: -0.116145059466
  z: -0.605549275875
---
header: 
  seq: 9907
  stamp: 
    secs: 1586896653
    nsecs: 993530765
  frame_id: "imu"
frame_id: ''
accelerometers: 
  x: -0.109403765649
  y: -0.0683862252488
  z: 9.81901380701
gyroscopes: 
  x: -0.00362250511535
  y: -0.000669887522236
  z: -0.00232498790137
magnetometers: 
  x: 0.102195948362
  y: -0.116156324744
  z: -0.604994535446
---
header: 
  seq: 9908
  stamp: 
    secs: 1586896654
    nsecs:   5629310
  frame_id: "imu"
frame_id: ''
accelerometers: 
  x: -0.12170969586
  y: -0.0763286219209
  z: 9.81943933895
gyroscopes: 
  x: -0.003505658824
  y: -0.000183468800969
  z: -0.00330521864817
magnetometers: 
  x: 0.101797327399
  y: -0.116391696036
  z: -0.605112671852
---
header: 
  seq: 9909
  stamp: 
    secs: 1586896654
    nsecs:  11609425
  frame_id: "imu"
frame_id: ''
accelerometers: 
  x: -0.127804770465
  y: -0.091345875183
  z: 9.80911785142
gyroscopes: 
  x: -0.00273166364059
  y: -0.00138564361259
  z: -0.00410725455731
magnetometers: 
  x: 0.1024460271
  y: -0.116704247892
  z: -0.604908227921
---
header: 
  seq: 9910
  stamp: 
    secs: 1586896654
    nsecs:  23499095
  frame_id: "imu"
frame_id: ''
accelerometers: 
  x: -0.131337200641
  y: -0.103486312633
  z: 9.81745196452
gyroscopes: 
  x: -0.00234197708778
  y: -0.00037731527118
  z: -0.00523202959448
magnetometers: 
  x: 0.102403327823
  y: -0.116515733302
  z: -0.604862451553
---
header: 
  seq: 9911
  stamp: 
    secs: 1586896654
    nsecs:  35620082
  frame_id: "imu"
frame_id: ''
accelerometers: 
  x: -0.131851908698
  y: -0.097037255225
  z: 9.79689783679
gyroscopes: 
  x: 0.0159381330013
  y: -0.00188690167852
  z: -0.00330989714712
magnetometers: 
  x: 0.102000914514
  y: -0.116343863308
  z: -0.604855537415
---
header: 
  seq: 9912
  stamp: 
    secs: 1586896654
    nsecs:  41666783
  frame_id: "imu"
frame_id: ''
accelerometers: 
  x: -0.107952123803
  y: -0.0963960073126
  z: 9.82944284657
gyroscopes: 
  x: 0.00580544490367
  y: 0.000432259577792
  z: -9.50768589973e-05
magnetometers: 
  x: 0.101842850447
  y: -0.116033598781
  z: -0.604499936104
---
header: 
  seq: 9913
  stamp: 
    secs: 1586896654
    nsecs:  53797268
  frame_id: "imu"
frame_id: ''
accelerometers: 
  x: -0.103682766787
  y: -0.0725136165103
  z: 9.81520973855
gyroscopes: 
  x: 0.00418805982918
  y: 0.00193869019859
  z: 0.000788575678598
magnetometers: 
  x: 0.102203510702
  y: -0.116441614926
  z: -0.604861557484
---
header: 
  seq: 9914
  stamp: 
    secs: 1586896654
    nsecs:  65638230
  frame_id: "imu"
frame_id: ''
accelerometers: 
  x: -0.0982700027572
  y: -0.0738432622455
  z: 9.81897405952
gyroscopes: 
  x: 0.0014839512296
  y: 0.00204102741554
  z: -0.000664251565468
magnetometers: 
  x: 0.102103888988
  y: -0.115700796247
  z: -0.604663312435
---
header: 
  seq: 9915
  stamp: 
    secs: 1586896654
    nsecs:  71621473
  frame_id: "imu"
frame_id: ''
accelerometers: 
  x: -0.0961805653304
  y: -0.070897039026
  z: 9.80992682971
gyroscopes: 
  x: 0.0045694638975
  y: 0.00296907010488
  z: -0.00136106810533
magnetometers: 
  x: 0.101938210428
  y: -0.115955397487
  z: -0.604955613613
---
header: 
  seq: 9916
  stamp: 
    secs: 1586896654
    nsecs:  89661189
  frame_id: "imu"
frame_id: ''
accelerometers: 
  x: -0.0950984052501
  y: -0.0745579361537
  z: 9.81742156938
gyroscopes: 
  x: 0.00706877233461
  y: 0.00350823951885
  z: -0.00244700629264
magnetometers: 
  x: 0.102333195508
  y: -0.11612457037
  z: -0.60471278429
---
header: 
  seq: 9917
  stamp: 
    secs: 1586896654
    nsecs:  95610832
  frame_id: "imu"
frame_id: ''
accelerometers: 
  x: -0.0909569215312
  y: -0.0738904760878
  z: 9.81930606796
gyroscopes: 
  x: 0.00750266388059
  y: 0.00332600693218
  z: -0.00267792167142
magnetometers: 
  x: 0.102346427739
  y: -0.116857461631
  z: -0.605100333691
---
header: 
  seq: 9918
  stamp: 
    secs: 1586896654
    nsecs: 101573144
  frame_id: "imu"
frame_id: ''
accelerometers: 
  x: -0.079397608437
  y: -0.073822224024
  z: 9.81775708495
gyroscopes: 
  x: 0.00666939839721
  y: 0.00521116005257
  z: -0.00447422172874
magnetometers: 
  x: 0.102574527264
  y: -0.116774395108
  z: -0.60503834486
---
header: 
  seq: 9919
  stamp: 
    secs: 1586896654
    nsecs: 113620539
  frame_id: "imu"
frame_id: ''
accelerometers: 
  x: -0.0852800449385
  y: -0.0742174978188
  z: 9.82728245366
gyroscopes: 
  x: 0.00887059327215
  y: 0.00399549724534
  z: -0.00478570722044
magnetometers: 
  x: 0.102474018931
  y: -0.117409974337
  z: -0.604826927185
---
header: 
  seq: 9920
  stamp: 
    secs: 1586896654
    nsecs: 125750282
  frame_id: "imu"
frame_id: ''
accelerometers: 
  x: -0.0873276525176
  y: -0.0757581102903
  z: 9.82764953341
gyroscopes: 
  x: 0.00661272415891
  y: 0.00524650653824
  z: -0.00706352107227
magnetometers: 
  x: 0.102272972465
  y: -0.11762137711
  z: -0.60505592823
---
header: 
  seq: 9921
  stamp: 
    secs: 1586896654
    nsecs: 131588969
  frame_id: "imu"
frame_id: ''
accelerometers: 
  x: -0.0967765767285
  y: -0.0783890067832
  z: 9.82714099936
gyroscopes: 
  x: 0.000327116227709
  y: 0.00571788335219
  z: -0.0074861436151
magnetometers: 
  x: 0.102277949452
  y: -0.118141695857
  z: -0.605227768421
---
header: 
  seq: 9922
  stamp: 
    secs: 1586896654
    nsecs: 143604504
  frame_id: "imu"
frame_id: ''
accelerometers: 
  x: -0.0984017850439
  y: -0.0783888332532
  z: 9.82591584148
gyroscopes: 
  x: 0.000667515734676
  y: 0.00566869881004
  z: -0.00405627675354
magnetometers: 
  x: 0.102053917944
  y: -0.11744043231
  z: -0.605073213577
---
header: 
  seq: 9923
  stamp: 
    secs: 1586896654
    nsecs: 155593665
  frame_id: "imu"
frame_id: ''
accelerometers: 
  x: -0.100165643778
  y: -0.073570053061
  z: 9.81979355921
gyroscopes: 
  x: -0.000972378533334
  y: 0.00419644685462
  z: -0.00361813232303
magnetometers: 
  x: 0.102417193353
  y: -0.117407202721
  z: -0.604964315891
---
header: 
  seq: 9924
  stamp: 
    secs: 1586896654
    nsecs: 161602476
  frame_id: "imu"
frame_id: ''
accelerometers: 
  x: -0.0992420626597
  y: -0.06301800818
  z: 9.81571242738
gyroscopes: 
  x: -0.00517093297094
  y: 0.00370981078595
  z: -0.00239716260694
magnetometers: 
  x: 0.102587856352
  y: -0.117581985891
  z: -0.605029284954
---
header: 
  seq: 9925
  stamp: 
    secs: 1586896654
    nsecs: 173658543
  frame_id: "imu"
frame_id: ''
accelerometers: 
  x: -0.0968510028047
  y: -0.0560021198023
  z: 9.81856606324
gyroscopes: 
  x: -0.0118617806584
  y: 0.00369300530292
  z: -0.00223342771642
magnetometers: 
  x: 0.102567374706
  y: -0.117905959487
  z: -0.605196774006
---
header: 
  seq: 9926
  stamp: 
    secs: 1586896654
    nsecs: 185725463
  frame_id: "imu"
frame_id: ''
accelerometers: 
  x: -0.0896173252242
  y: -0.0486108679066
  z: 9.81394366414
gyroscopes: 
  x: -0.0181779228151
  y: 0.00593547383323
  z: -0.00183019263204
magnetometers: 
  x: 0.10308842361
  y: -0.117627747357
  z: -0.605042278767
---
header: 
  seq: 9927
  stamp: 
    secs: 1586896654
    nsecs: 197610963
  frame_id: "imu"
frame_id: ''
accelerometers: 
  x: -0.0836657416097
  y: -0.0433590848583
  z: 9.81392963561
gyroscopes: 
  x: -0.0238464120775
  y: 0.00615419028327
  z: -0.000743313110434
magnetometers: 
  x: 0.101750552654
  y: -0.117764607072
  z: -0.604795873165
---
header: 
  seq: 9928
  stamp: 
    secs: 1586896654
    nsecs: 203571524
  frame_id: "imu"
frame_id: ''
accelerometers: 
  x: -0.0830457100152
  y: -0.0388089518398
  z: 9.81349358228
gyroscopes: 
  x: -0.0266462936997
  y: 0.00703902821988
  z: 0.000400704186177
magnetometers: 
  x: 0.102345332503
  y: -0.117378041148
  z: -0.604556083679
---
header: 
  seq: 9929
  stamp: 
    secs: 1586896654
    nsecs: 215604451
  frame_id: "imu"
frame_id: ''
accelerometers: 
  x: -0.0844063034445
  y: -0.0517331007136
  z: 9.8331101369
gyroscopes: 
  x: -0.0268391631544
  y: 0.00667242472991
  z: 0.000577823317144
magnetometers: 
  x: 0.103004314005
  y: -0.117746904492
  z: -0.604858338833
---
header: 
  seq: 9930
  stamp: 
    secs: 1586896654
    nsecs: 227574181
  frame_id: "imu"
frame_id: ''
accelerometers: 
  x: -0.0952686837831
  y: -0.0548692981137
  z: 9.81586440307
gyroscopes: 
  x: -0.0155078144744
  y: 0.00349340168759
  z: 0.0013503851369
magnetometers: 
  x: 0.102990299463
  y: -0.118171468377
  z: -0.605275094509
---
header: 
  seq: 9931
  stamp: 
    secs: 1586896654
    nsecs: 233532345
  frame_id: "imu"
frame_id: ''
accelerometers: 
  x: -0.106282172163
  y: -0.07023622333
  z: 9.82118004513
gyroscopes: 
  x: -0.0102018266916
  y: 0.00300064799376
  z: -0.000221100141061
magnetometers: 
  x: 0.102457128465
  y: -0.117021076381
  z: -0.605056941509
---
header: 
  seq: 9932
  stamp: 
    secs: 1586896654
    nsecs: 245726108
  frame_id: "imu"
frame_id: ''
accelerometers: 
  x: -0.117371155199
  y: -0.0813415090464
  z: 9.82697148802
gyroscopes: 
  x: -0.00810832437128
  y: 0.00272820005193
  z: -0.00217224773951
magnetometers: 
  x: 0.102591000497
  y: -0.117412537336
  z: -0.604955911636
---
header: 
  seq: 9933
  stamp: 
    secs: 1586896654
    nsecs: 257610009
  frame_id: "imu"
frame_id: ''
accelerometers: 
  x: -0.124448728902
  y: -0.0886617323992
  z: 9.82674118639
gyroscopes: 
  x: -0.00822655204684
  y: 0.00247152824886
  z: -0.00251427991316
magnetometers: 
  x: 0.103422738612
  y: -0.11686168611
  z: -0.605193793774
---
header: 
  seq: 9934
  stamp: 
    secs: 1586896654
    nsecs: 263619330
  frame_id: "imu"
frame_id: ''
accelerometers: 
  x: -0.118874097975
  y: -0.0872961614008
  z: 9.81979472826
gyroscopes: 
  x: -0.00754427304491
  y: 0.00248352601193
  z: -0.00112068490125
magnetometers: 
  x: 0.103119544685
  y: -0.116285726428
  z: -0.605023801327
---
header: 
  seq: 9935
  stamp: 
    secs: 1586896654
    nsecs: 275679992
  frame_id: "imu"
frame_id: ''
accelerometers: 
  x: -0.111873544163
  y: -0.0854532643473
  z: 9.82015128661
gyroscopes: 
  x: -0.00701047619805
  y: 0.00279488391243
  z: -0.00177033036016
magnetometers: 
  x: 0.103183209896
  y: -0.115620262921
  z: -0.604531526566
---
header: 
  seq: 9936
  stamp: 
    secs: 1586896654
    nsecs: 287601988
  frame_id: "imu"
frame_id: ''
accelerometers: 
  x: -0.10531899882
  y: -0.0809585284776
  z: 9.82728479175
gyroscopes: 
  x: -0.00593424355611
  y: 0.00184681103565
  z: -0.000432168570114
magnetometers: 
  x: 0.103164240718
  y: -0.116615459323
  z: -0.604430139065
---
header: 
  seq: 9937
  stamp: 
    secs: 1586896654
    nsecs: 293604398
  frame_id: "imu"
frame_id: ''
accelerometers: 
  x: -0.0973981244266
  y: -0.0770674575895
  z: 9.82630279498
gyroscopes: 
  x: -0.00587345799431
  y: -0.000847251736559
  z: -0.000406539067626
magnetometers: 
  x: 0.10288631171
  y: -0.116292066872
  z: -0.604654073715
---
header: 
  seq: 9938
  stamp: 
    secs: 1586896654
    nsecs: 305744080
  frame_id: "imu"
frame_id: ''
accelerometers: 
  x: -0.094235952335
  y: -0.0790671891725
  z: 9.81605612625
gyroscopes: 
  x: -0.00428315857425
  y: -0.00211599026807
  z: -1.08705135062e-05
magnetometers: 
  x: 0.1032390818
  y: -0.116694785655
  z: -0.604905724525
---
header: 
  seq: 9939
  stamp: 
    secs: 1586896654
    nsecs: 317764049
  frame_id: "imu"
frame_id: ''
accelerometers: 
  x: -0.0990705328846
  y: -0.0794228433429
  z: 9.82003555127
gyroscopes: 
  x: -0.00457200780511
  y: 0.000164047713042
  z: 3.4863507608e-05
magnetometers: 
  x: 0.103753954172
  y: -0.116906493902
  z: -0.604756057262
---
header: 
  seq: 9940
  stamp: 
    secs: 1586896654
    nsecs: 323665130
  frame_id: "imu"
frame_id: ''
accelerometers: 
  x: -0.102708396197
  y: -0.0782714356849
  z: 9.82299206299
gyroscopes: 
  x: -0.00423391722143
  y: -0.000586458656471
  z: -0.000453743268736
magnetometers: 
  x: 0.102845139802
  y: -0.116809397936
  z: -0.604944348335
---
header: 
  seq: 9941
  stamp: 
    secs: 1586896654
    nsecs: 336011970
  frame_id: "imu"
frame_id: ''
accelerometers: 
  x: -0.107201332835
  y: -0.079473797212
  z: 9.81432827954
gyroscopes: 
  x: -0.00382129545324
  y: -0.000812910730019
  z: -0.000439316558186
magnetometers: 
  x: 0.102778084576
  y: -0.117310479283
  z: -0.60490167141
---
header: 
  seq: 9942
  stamp: 
    secs: 1586896654
    nsecs: 347625946
  frame_id: "imu"
frame_id: ''
accelerometers: 
  x: -0.0965408500102
  y: -0.0751787440663
  z: 9.8202366268
gyroscopes: 
  x: -0.00403721770272
  y: 0.00137168355286
  z: -0.00471170339733
magnetometers: 
  x: 0.103205904365
  y: -0.11757851392
  z: -0.604749381542
---
header: 
  seq: 9943
  stamp: 
    secs: 1586896654
    nsecs: 353779415
  frame_id: "imu"
frame_id: ''
accelerometers: 
  x: -0.11419897317
  y: -0.0873227388804
  z: 9.8252541627
gyroscopes: 
  x: -0.00547753553838
  y: 0.00289462832734
  z: -0.00850050617009
magnetometers: 
  x: 0.103164508939
  y: -0.117338769138
  z: -0.604709148407
---
header: 
  seq: 9944
  stamp: 
    secs: 1586896654
    nsecs: 365782971
  frame_id: "imu"
frame_id: ''
accelerometers: 
  x: -0.114996598954
  y: -0.0825455693402
  z: 9.81990111124
gyroscopes: 
  x: -0.00725702755153
  y: 0.00260401889682
  z: -0.00362866930664
magnetometers: 
  x: 0.103078335524
  y: -0.117706902325
  z: -0.604826211929
---
header: 
  seq: 9945
  stamp: 
    secs: 1586896654
    nsecs: 377618117
  frame_id: "imu"
frame_id: ''
accelerometers: 
  x: -0.114083411366
  y: -0.08083070998
  z: 9.81921488254
gyroscopes: 
  x: -0.00644081784412
  y: 0.00123449962121
  z: 0.00159920845181
magnetometers: 
  x: 0.103021748364
  y: -0.117849335074
  z: -0.604911923409
---
header: 
  seq: 9946
  stamp: 
    secs: 1586896654
    nsecs: 389786576
  frame_id: "imu"
frame_id: ''
accelerometers: 
  x: -0.115258921418
  y: -0.0843110172433
  z: 9.81446155053
gyroscopes: 
  x: -0.00516381720081
  y: 0.000766949495301
  z: -0.00202497979626
magnetometers: 
  x: 0.103450454772
  y: -0.117977567017
  z: -0.604957938194
---
header: 
  seq: 9947
  stamp: 
    secs: 1586896654
    nsecs: 395599226
  frame_id: "imu"
frame_id: ''
accelerometers: 
  x: -0.127035621857
  y: -0.0909237407808
  z: 9.81818612401
gyroscopes: 
  x: -0.00494188303128
  y: 0.00126798555721
  z: -0.000378670229111
magnetometers: 
  x: 0.103478841484
  y: -0.118038073182
  z: -0.605256438255
---
header: 
  seq: 9948
  stamp: 
    secs: 1586896654
    nsecs: 407668754
  frame_id: "imu"
frame_id: ''
accelerometers: 
  x: -0.128587582273
  y: -0.0927849224096
  z: 9.82084920574
gyroscopes: 
  x: -0.00469148950651
  y: 0.00231596897356
  z: -0.000538201187737
magnetometers: 
  x: 0.103750772774
  y: -0.117563083768
  z: -0.605474770069
---
header: 
  seq: 9949
  stamp: 
    secs: 1586896654
    nsecs: 420003336
  frame_id: "imu"
frame_id: ''
accelerometers: 
  x: -0.124490613549
  y: -0.084940044995
  z: 9.8096380759
gyroscopes: 
  x: -0.00499084498733
  y: 0.00190782244317
  z: 0.000674356997479
magnetometers: 
  x: 0.103768803179
  y: -0.117112576962
  z: -0.605309307575
---
header: 
  seq: 9950
  stamp: 
    secs: 1586896654
    nsecs: 425583306
  frame_id: "imu"
frame_id: ''
accelerometers: 
  x: -0.114572080799
  y: -0.0721358190068
  z: 9.81657167456
gyroscopes: 
  x: -0.006310116034
  y: 0.00270388508216
  z: 0.0059229619801
magnetometers: 
  x: 0.103324875236
  y: -0.117132924497
  z: -0.605143606663
---
header: 
  seq: 9951
  stamp: 
    secs: 1586896654
    nsecs: 437581551
  frame_id: "imu"
frame_id: ''
accelerometers: 
  x: -0.0958152482825
  y: -0.053971636888
  z: 9.82418098052
gyroscopes: 
  x: -0.00598142668605
  y: 0.00377432908863
  z: 0.00792270898819
magnetometers: 
  x: 0.102768540382
  y: -0.117126584053
  z: -0.605203211308
---
header: 
  seq: 9952
  stamp: 
    secs: 1586896654
    nsecs: 449665259
  frame_id: "imu"
frame_id: ''
accelerometers: 
  x: -0.0838587251648
  y: -0.0471400053362
  z: 9.82077555599
gyroscopes: 
  x: -0.00632762024179
  y: 0.00573405716568
  z: 0.00728854676709
magnetometers: 
  x: 0.102367706597
  y: -0.116919241846
  z: -0.605227351189
---
header: 
  seq: 9953
  stamp: 
    secs: 1586896654
    nsecs: 455619793
  frame_id: "imu"
frame_id: ''
accelerometers: 
  x: -0.0777926483252
  y: -0.0415912349355
  z: 9.81492916805
gyroscopes: 
  x: -0.0062345219776
  y: 0.0120256328955
  z: 0.00584787363186
magnetometers: 
  x: 0.102163426578
  y: -0.116490803659
  z: -0.605242192745
---
header: 
  seq: 9954
  stamp: 
    secs: 1586896654
    nsecs: 473617166
  frame_id: "imu"
frame_id: ''
accelerometers: 
  x: -0.0720064341732
  y: -0.0443658644478
  z: 9.82771032369
gyroscopes: 
  x: -0.00757458386943
  y: 0.0209249723703
  z: 0.0030681672506
magnetometers: 
  x: 0.102112092078
  y: -0.116212002933
  z: -0.605112195015
---
header: 
  seq: 9955
  stamp: 
    secs: 1586896654
    nsecs: 479617092
  frame_id: "imu"
frame_id: ''
accelerometers: 
  x: -0.0746637072163
  y: -0.0569454102681
  z: 9.84499112883
gyroscopes: 
  x: -0.00512744300067
  y: 0.0287001207471
  z: 0.0039882059209
magnetometers: 
  x: 0.102439455688
  y: -0.116234764457
  z: -0.605118274689
---
header: 
  seq: 9956
  stamp: 
    secs: 1586896654
    nsecs: 485626581
  frame_id: "imu"
frame_id: ''
accelerometers: 
  x: -0.059119407006
  y: -0.0741413090437
  z: 9.87547628347
gyroscopes: 
  x: 0.00373229058459
  y: 0.0586111098528
  z: 0.00981950387359
magnetometers: 
  x: 0.102660961449
  y: -0.116247057915
  z: -0.604926228523
---
header: 
  seq: 9957
  stamp: 
    secs: 1586896654
    nsecs: 497761173
  frame_id: "imu"
frame_id: ''
accelerometers: 
  x: -0.0665365011624
  y: -0.0959996740719
  z: 9.89845150086
gyroscopes: 
  x: 0.0170947741717
  y: 0.112775981426
  z: 0.0148655353114
magnetometers: 
  x: 0.102881014347
  y: -0.116385817528
  z: -0.604617357254
---
header: 
  seq: 9958
  stamp: 
    secs: 1586896654
    nsecs: 509803147
  frame_id: "imu"
frame_id: ''
accelerometers: 
  x: -0.151052037135
  y: -0.148499987165
  z: 9.86259225197
gyroscopes: 
  x: 0.030182166025
  y: 0.164925202727
  z: 0.033641397953
magnetometers: 
  x: 0.103779278696
  y: -0.116380445659
  z: -0.604619979858
---
header: 
  seq: 9959
  stamp: 
    secs: 1586896654
    nsecs: 515784395
  frame_id: "imu"
frame_id: ''
accelerometers: 
  x: -0.0748581201101
  y: -0.118393940642
  z: 9.98454572999
gyroscopes: 
  x: 0.0359831117094
  y: 0.195075973868
  z: 0.0442459657788
magnetometers: 
  x: 0.104750029743
  y: -0.11652508378
  z: -0.604426205158
---
header: 
  seq: 9960
  stamp: 
    secs: 1586896654
    nsecs: 527669535
  frame_id: "imu"
frame_id: ''
accelerometers: 
  x: -0.088968058402
  y: -0.0811010787535
  z: 9.97229298214
gyroscopes: 
  x: 0.0539473742247
  y: 0.289025843143
  z: 0.0238023623824
magnetometers: 
  x: 0.105056747794
  y: -0.116793073714
  z: -0.604119062424
---
header: 
  seq: 9961
  stamp: 
    secs: 1586896654
    nsecs: 539613740
  frame_id: "imu"
frame_id: ''
accelerometers: 
  x: -0.166901384706
  y: -0.0475783008554
  z: 9.83194927643
gyroscopes: 
  x: 0.0494281277061
  y: 0.345367997885
  z: 0.00916386768222
magnetometers: 
  x: 0.105539575219
  y: -0.116997435689
  z: -0.603908002377
---
header: 
  seq: 9962
  stamp: 
    secs: 1586896654
    nsecs: 545603648
  frame_id: "imu"
frame_id: ''
accelerometers: 
  x: -0.250192265122
  y: 0.00286519101839
  z: 9.7329388671
gyroscopes: 
  x: 0.0350467115641
  y: 0.35218667984
  z: -0.0107067935169
magnetometers: 
  x: 0.107000045478
  y: -0.117694705725
  z: -0.603549361229
---
header: 
  seq: 9963
  stamp: 
    secs: 1586896654
    nsecs: 557701794
  frame_id: "imu"
frame_id: ''
accelerometers: 
  x: -0.351278987534
  y: -0.0206927050826
  z: 9.64782488118
gyroscopes: 
  x: 0.0280413907021
  y: 0.273654460907
  z: -0.0455226972699
magnetometers: 
  x: 0.108885683119
  y: -0.118564106524
  z: -0.603247523308
---
header: 
  seq: 9964
  stamp: 
    secs: 1586896654
    nsecs: 569632008
  frame_id: "imu"
frame_id: ''
accelerometers: 
  x: -0.366988342113
  y: -0.0853073622037
  z: 9.841764568
gyroscopes: 
  x: 0.0200274586678
  y: 0.186004906893
  z: -0.0419988371432
magnetometers: 
  x: 0.110435329378
  y: -0.119095094502
  z: -0.603046178818
---
header: 
  seq: 9965
  stamp: 
    secs: 1586896654
    nsecs: 575575457
  frame_id: "imu"
frame_id: ''
accelerometers: 
  x: -0.45689818401
  y: -0.0885432845182
  z: 9.68232979285
gyroscopes: 
  x: 0.00938365422189
  y: 0.0905660092831
  z: -0.0216084588319
magnetometers: 
  x: 0.111732579768
  y: -0.11892645061
  z: -0.602815806866
---
header: 
  seq: 9966
  stamp: 
    secs: 1586896654
    nsecs: 593551397
  frame_id: "imu"
frame_id: ''
accelerometers: 
  x: -0.429307910567
  y: -0.10441235057
  z: 9.74140449763
gyroscopes: 
  x: -0.000330035458319
  y: -0.00280506396666
  z: -0.0119704976678
magnetometers: 
  x: 0.11307515204
  y: -0.11829225719
  z: -0.602512717247
---
header: 
  seq: 9967
  stamp: 
    secs: 1586896654
    nsecs: 599479024
  frame_id: "imu"
frame_id: ''
accelerometers: 
  x: -0.344535431558
  y: -0.0852989779679
  z: 9.76295757327
gyroscopes: 
  x: -0.00662976130843
  y: -0.0422080345452
  z: -0.000948242726736
magnetometers: 
  x: 0.113675072789
  y: -0.118254892528
  z: -0.602343022823
---
header: 
  seq: 9968
  stamp: 
    secs: 1586896654
    nsecs: 611590981
  frame_id: "imu"
frame_id: ''
accelerometers: 
  x: -0.279252574585
  y: -0.0336155707481
  z: 9.91793361545
gyroscopes: 
  x: -0.0052662268281
  y: -0.0319809317589
  z: 0.00419220793992
magnetometers: 
  x: 0.114681988955
  y: -0.118079356849
  z: -0.602263450623
---
header: 
  seq: 9969
  stamp: 
    secs: 1586896654
    nsecs: 617619702
  frame_id: "imu"
frame_id: ''
accelerometers: 
  x: -0.238652798372
  y: -0.0131215939749
  z: 9.89440894747
gyroscopes: 
  x: -0.00184755772352
  y: -0.00327293504961
  z: 0.00599040603265
magnetometers: 
  x: 0.114392749965
  y: -0.117375582457
  z: -0.601983368397
---
header: 
  seq: 9970
  stamp: 
    secs: 1586896654
    nsecs: 629508985
  frame_id: "imu"
frame_id: ''
accelerometers: 
  x: -0.232263882787
  y: 0.000834487624035
  z: 9.80579776708
gyroscopes: 
  x: 0.000204948068131
  y: 0.0218867436051
  z: 0.00488295499235
magnetometers: 
  x: 0.114130392671
  y: -0.117586441338
  z: -0.602042138577
---
header: 
  seq: 9971
  stamp: 
    secs: 1586896654
    nsecs: 641527027
  frame_id: "imu"
frame_id: ''
accelerometers: 
  x: -0.257058607227
  y: 0.0117736111487
  z: 9.81906992111
gyroscopes: 
  x: 0.00116998760495
  y: 0.0202824939042
  z: -0.00987931527197
magnetometers: 
  x: 0.114591516554
  y: -0.117966972291
  z: -0.602114140987
---
header: 
  seq: 9972
  stamp: 
    secs: 1586896654
    nsecs: 647805319
  frame_id: "imu"
frame_id: ''
accelerometers: 
  x: -0.302194382902
  y: -0.028627288341
  z: 9.76396470448
gyroscopes: 
  x: -0.00130981206894
  y: -0.00488950964063
  z: -0.0241900756955
magnetometers: 
  x: 0.114761717618
  y: -0.118197776377
  z: -0.602293252945
---
header: 
  seq: 9973
  stamp: 
    secs: 1586896654
    nsecs: 659951248
  frame_id: "imu"
frame_id: ''
accelerometers: 
  x: -0.349881541826
  y: -0.04694843742
  z: 9.73284066742
gyroscopes: 
  x: -0.00498573062941
  y: -0.041173890233
  z: -0.0278986170888
magnetometers: 
  x: 0.114714212716
  y: -0.117889210582
  z: -0.602182209492
---
header: 
  seq: 9974
  stamp: 
    secs: 1586896654
    nsecs: 671902282
  frame_id: "imu"
frame_id: ''
accelerometers: 
  x: -0.373015347317
  y: -0.0502049960971
  z: 9.76405881251
gyroscopes: 
  x: -0.0102965356782
  y: -0.0821054801345
  z: -0.0275120977312
magnetometers: 
  x: 0.114466682076
  y: -0.11796797812
  z: -0.601995050907
---
header: 
  seq: 9975
  stamp: 
    secs: 1586896654
    nsecs: 677503497
  frame_id: "imu"
frame_id: ''
accelerometers: 
  x: -0.318544957994
  y: -0.0347365467352
  z: 9.80688614684
gyroscopes: 
  x: -0.013298294507
  y: -0.11030407995
  z: -0.0421719923615
magnetometers: 
  x: 0.114323198795
  y: -0.118123337626
  z: -0.601998746395
---
header: 
  seq: 9976
  stamp: 
    secs: 1586896654
    nsecs: 689769244
  frame_id: "imu"
frame_id: ''
accelerometers: 
  x: -0.299199000478
  y: -0.0521128938114
  z: 9.83913772663
gyroscopes: 
  x: -0.0156090818346
  y: -0.100260414183
  z: -0.065552033484
magnetometers: 
  x: 0.114038959146
  y: -0.117876030505
  z: -0.602230131626
---
header: 
  seq: 9977
  stamp: 
    secs: 1586896654
    nsecs: 701575224
  frame_id: "imu"
frame_id: ''
accelerometers: 
  x: -0.224838664689
  y: -0.0284081337315
  z: 9.89245313723
gyroscopes: 
  x: -0.0093247583136
  y: -0.0552268214524
  z: -0.0988611578941
magnetometers: 
  x: 0.113694235682
  y: -0.117346249521
  z: -0.602143287659
---
header: 
  seq: 9978
  stamp: 
    secs: 1586896654
    nsecs: 707632615
  frame_id: "imu"
frame_id: ''
accelerometers: 
  x: -0.240649726077
  y: -0.055051175753
  z: 9.85609003047
gyroscopes: 
  x: -0.00567540014163
  y: -0.00527387904003
  z: -0.113481335342
magnetometers: 
  x: 0.114055432379
  y: -0.117362499237
  z: -0.602355003357
---
header: 
  seq: 9979
  stamp: 
    secs: 1586896654
    nsecs: 719599549
  frame_id: "imu"
frame_id: ''
accelerometers: 
  x: -0.290673620853
  y: -0.0994507278412
  z: 9.84734792109
gyroscopes: 
  x: -0.00301030348055
  y: 0.0183345805854
  z: -0.0768141299486
magnetometers: 
  x: 0.113476395607
  y: -0.117669180036
  z: -0.602337777615
---
header: 
  seq: 9980
  stamp: 
    secs: 1586896654
    nsecs: 731933645
  frame_id: "imu"
frame_id: ''
accelerometers: 
  x: -0.269528048303
  y: -0.0651695830236
  z: 9.82872154655
gyroscopes: 
  x: -0.00207045953721
  y: 0.0184867549688
  z: -0.0274345818907
magnetometers: 
  x: 0.112623989582
  y: -0.117325946689
  z: -0.602474927902
---
header: 
  seq: 9981
  stamp: 
    secs: 1586896654
    nsecs: 737572974
  frame_id: "imu"
frame_id: ''
accelerometers: 
  x: -0.233935012603
  y: -0.0218670552247
  z: 9.76972107605
gyroscopes: 
  x: -0.00310819642618
  y: -0.00435569789261
  z: -0.0112066296861
magnetometers: 
  x: 0.11257623136
  y: -0.117294587195
  z: -0.602581858635
---
header: 
  seq: 9982
  stamp: 
    secs: 1586896654
    nsecs: 749570946
  frame_id: "imu"
frame_id: ''
accelerometers: 
  x: -0.234782843337
  y: -0.0218731447555
  z: 9.77245839206
gyroscopes: 
  x: -0.0053122988902
  y: -0.0309534296393
  z: -0.0177890043706
magnetometers: 
  x: 0.11249370873
  y: -0.117174699903
  z: -0.60287219286
---
header: 
  seq: 9983
  stamp: 
    secs: 1586896654
    nsecs: 761671203
  frame_id: "imu"
frame_id: ''
accelerometers: 
  x: -0.233955945793
  y: -0.00744224686392
  z: 9.76974621049
gyroscopes: 
  x: -0.00512978807092
  y: -0.0619127936661
  z: -0.0418800450861
magnetometers: 
  x: 0.112592920661
  y: -0.117360673845
  z: -0.602955579758
---
header: 
  seq: 9984
  stamp: 
    secs: 1586896654
    nsecs: 767564110
  frame_id: "imu"
frame_id: ''
accelerometers: 
  x: -0.183734884477
  y: 0.0493172215111
  z: 9.78727660649
gyroscopes: 
  x: -0.00967228878289
  y: -0.100090272725
  z: -0.114666707814
magnetometers: 
  x: 0.112726330757
  y: -0.116988226771
  z: -0.602816104889
---
header: 
  seq: 9985
  stamp: 
    secs: 1586896654
    nsecs: 779558788
  frame_id: "imu"
frame_id: ''
accelerometers: 
  x: -0.201147079185
  y: 0.0560698056105
  z: 9.75831179329
gyroscopes: 
  x: -0.0181135106832
  y: -0.1378659904
  z: -0.22264803946
magnetometers: 
  x: 0.112228900194
  y: -0.116571597755
  z: -0.602603793144
---
header: 
  seq: 9986
  stamp: 
    secs: 1586896654
    nsecs: 803853220
  frame_id: "imu"
frame_id: ''
accelerometers: 
  x: -0.214536119324
  y: 0.0317353761748
  z: 9.80717256257
gyroscopes: 
  x: -0.0237913075835
  y: -0.150317400694
  z: -0.327190726995
magnetometers: 
  x: 0.111658595502
  y: -0.116395138204
  z: -0.602736592293
---
header: 
  seq: 9987
  stamp: 
    secs: 1586896654
    nsecs: 803897958
  frame_id: "imu"
frame_id: ''
accelerometers: 
  x: -0.209493887373
  y: -0.0103708362453
  z: 9.79152608063
gyroscopes: 
  x: -0.0212859474123
  y: -0.162222027779
  z: -0.418001681566
magnetometers: 
  x: 0.111146375537
  y: -0.116190969944
  z: -0.603398561478
---
header: 
  seq: 9988
  stamp: 
    secs: 1586896654
    nsecs: 809417091
  frame_id: "imu"
frame_id: ''
accelerometers: 
  x: -0.202152767362
  y: -0.0423970942586
  z: 9.77155705931
gyroscopes: 
  x: -0.0153518719599
  y: -0.198848739266
  z: -0.481843024492
magnetometers: 
  x: 0.111327573657
  y: -0.115532100201
  z: -0.603334009647
---
header: 
  seq: 9989
  stamp: 
    secs: 1586896654
    nsecs: 821656543
  frame_id: "imu"
frame_id: ''
accelerometers: 
  x: -0.154455835963
  y: -0.0764571117054
  z: 9.8171924368
gyroscopes: 
  x: -0.0095306225121
  y: -0.250444233418
  z: -0.515307307243
magnetometers: 
  x: 0.110697098076
  y: -0.114849559963
  z: -0.603330731392
---
header: 
  seq: 9990
  stamp: 
    secs: 1586896654
    nsecs: 833699455
  frame_id: "imu"
frame_id: ''
accelerometers: 
  x: -0.139461305989
  y: -0.130808235731
  z: 9.87987656425
gyroscopes: 
  x: -0.00971065089107
  y: -0.226042896509
  z: -0.499968081713
magnetometers: 
  x: 0.109672501683
  y: -0.1145503968
  z: -0.603339731693
---
header: 
  seq: 9991
  stamp: 
    secs: 1586896654
    nsecs: 839514225
  frame_id: "imu"
frame_id: ''
accelerometers: 
  x: -0.157571849091
  y: -0.201241698666
  z: 9.92417514018
gyroscopes: 
  x: 0.00407462846488
  y: -0.164971500635
  z: -0.413087129593
magnetometers: 
  x: 0.1095315516
  y: -0.113664537668
  z: -0.603702425957
---
header: 
  seq: 9992
  stamp: 
    secs: 1586896654
    nsecs: 851558091
  frame_id: "imu"
frame_id: ''
accelerometers: 
  x: -0.179144213952
  y: -0.202208844931
  z: 9.92308909851
gyroscopes: 
  x: 0.0310186259449
  y: -0.0862894430757
  z: -0.274842709303
magnetometers: 
  x: 0.108870215714
  y: -0.11340585351
  z: -0.604047417641
---
header: 
  seq: 9993
  stamp: 
    secs: 1586896654
    nsecs: 863603526
  frame_id: "imu"
frame_id: ''
accelerometers: 
  x: -0.206095678035
  y: -0.154274013122
  z: 9.87183821923
gyroscopes: 
  x: 0.0453617535532
  y: -0.0230209939182
  z: -0.123589597642
magnetometers: 
  x: 0.107868343592
  y: -0.113742411137
  z: -0.603871464729
---
header: 
  seq: 9994
  stamp: 
    secs: 1586896654
    nsecs: 869609872
  frame_id: "imu"
frame_id: ''
accelerometers: 
  x: -0.16009245361
  y: -0.0792535329243
  z: 9.85401147063
gyroscopes: 
  x: 0.0402064584196
  y: 0.0199843458831
  z: -0.0153936427087
magnetometers: 
  x: 0.107861369848
  y: -0.113675922155
  z: -0.603967964649
---
header: 
  seq: 9995
  stamp: 
    secs: 1586896654
    nsecs: 881714114
  frame_id: "imu"
frame_id: ''
accelerometers: 
  x: -0.10318256218
  y: -0.0263142301922
  z: 9.82328549298
gyroscopes: 
  x: 0.0291279479861
  y: 0.0558051913977
  z: 0.0126778632402
magnetometers: 
  x: 0.107661649585
  y: -0.113576091826
  z: -0.604169905186
---
header: 
  seq: 9996
  stamp: 
    secs: 1586896654
    nsecs: 893735733
  frame_id: "imu"
frame_id: ''
accelerometers: 
  x: -0.144954030787
  y: -0.0312224102675
  z: 9.76841934581
gyroscopes: 
  x: 0.00341292447411
  y: 0.0547290481627
  z: 0.00201963307336
magnetometers: 
  x: 0.107351496816
  y: -0.114188313484
  z: -0.604166328907
---
header: 
  seq: 9997
  stamp: 
    secs: 1586896654
    nsecs: 899576216
  frame_id: "imu"
frame_id: ''
accelerometers: 
  x: -0.205992564721
  y: -0.0648114309354
  z: 9.74909212952
gyroscopes: 
  x: -0.00766892638057
  y: 0.0110421590507
  z: 0.00902336277068
magnetometers: 
  x: 0.107141047716
  y: -0.113923415542
  z: -0.604379475117
---
header: 
  seq: 9998
  stamp: 
    secs: 1586896654
    nsecs: 911962802
  frame_id: "imu"
frame_id: ''
accelerometers: 
  x: -0.186436818646
  y: -0.0583892569674
  z: 9.75453110571
gyroscopes: 
  x: -0.0222111809999
  y: -0.0392313748598
  z: 0.0186418164521
magnetometers: 
  x: 0.107831023633
  y: -0.113952629268
  z: -0.604415237904
---
header: 
  seq: 9999
  stamp: 
    secs: 1586896654
    nsecs: 923586298
  frame_id: "imu"
frame_id: ''
accelerometers: 
  x: -0.119564162598
  y: -0.0572088880764
  z: 9.83657985884
gyroscopes: 
  x: -0.0259759668261
  y: -0.0655527114868
  z: 0.0017877263017
magnetometers: 
  x: 0.108108788729
  y: -0.114110946655
  z: -0.604176163673
---
header: 
  seq: 10000
  stamp: 
    secs: 1586896654
    nsecs: 929615149
  frame_id: "imu"
frame_id: ''
accelerometers: 
  x: -0.124333121432
  y: -0.0696815714222
  z: 9.83421955945
gyroscopes: 
  x: -0.027394477278
  y: -0.0464735031128
  z: -0.0195504520088
magnetometers: 
  x: 0.107963308692
  y: -0.113176681101
  z: -0.604017853737
---
header: 
  seq: 10001
  stamp: 
    secs: 1586896654
    nsecs: 941626681
  frame_id: "imu"
frame_id: ''
accelerometers: 
  x: -0.150001267707
  y: -0.0902555957282
  z: 9.84197499588
gyroscopes: 
  x: -0.0203831475228
  y: -0.0204852316529
  z: 0.00283285812475
magnetometers: 
  x: 0.107699558139
  y: -0.113445319235
  z: -0.604291260242
---
header: 
  seq: 10002
  stamp: 
    secs: 1586896654
    nsecs: 953557138
  frame_id: "imu"
frame_id: ''
accelerometers: 
  x: -0.109917368594
  y: -0.0585360313272
  z: 9.83229531339
gyroscopes: 
  x: -0.0213639996946
  y: -0.00490019517019
  z: 0.0182156525552
magnetometers: 
  x: 0.107715211809
  y: -0.113176219165
  z: -0.604485809803
---
header: 
  seq: 10003
  stamp: 
    secs: 1586896654
    nsecs: 959596543
  frame_id: "imu"
frame_id: ''
accelerometers: 
  x: -0.10850322748
  y: -0.0601017097414
  z: 9.83512907551
gyroscopes: 
  x: -0.0235456302762
  y: 0.00949155166745
  z: 0.0227213185281
magnetometers: 
  x: 0.107745848596
  y: -0.112837545574
  z: -0.604462444782
---
header: 
  seq: 10004
  stamp: 
    secs: 1586896654
    nsecs: 971960576
  frame_id: "imu"
frame_id: ''
accelerometers: 
  x: -0.132973688402
  y: -0.0700343029831
  z: 9.81732921492
gyroscopes: 
  x: -0.0128446351737
  y: 0.0120777478442
  z: 0.0464093126357
magnetometers: 
  x: 0.10708308965
  y: -0.112839587033
  z: -0.604539573193
---
header: 
  seq: 10005
  stamp: 
    secs: 1586896654
    nsecs: 983577010
  frame_id: "imu"
frame_id: ''
accelerometers: 
  x: -0.200448301532
  y: -0.134379317417
  z: 9.82878701301
gyroscopes: 
  x: -0.0241527371109
  y: 0.00635721534491
  z: 0.100752733648
magnetometers: 
  x: 0.107144333422
  y: -0.113013654947
  z: -0.604484081268
---
header: 
  seq: 10006
  stamp: 
    secs: 1586896654
    nsecs: 989546540
  frame_id: "imu"
frame_id: ''
accelerometers: 
  x: -0.197504850225
  y: -0.112719301672
  z: 9.8144685648
gyroscopes: 
  x: -0.00728424498811
  y: -0.0460074543953
  z: 0.187044888735
magnetometers: 
  x: 0.106450282037
  y: -0.112620733678
  z: -0.604310393333
---
header: 
  seq: 10007
  stamp: 
    secs: 1586896655
    nsecs:   7569440
  frame_id: "imu"
frame_id: ''
accelerometers: 
  x: -0.186180122205
  y: -0.0968732694355
  z: 9.82711644945
gyroscopes: 
  x: -0.0087109701708
  y: -0.0231333933771
  z: 0.253902673721
magnetometers: 
  x: 0.106059022248
  y: -0.112845718861
  z: -0.604635596275
---
header: 
  seq: 10008
  stamp: 
    secs: 1586896655
    nsecs:  13643961
  frame_id: "imu"
frame_id: ''
accelerometers: 
  x: -0.197518349027
  y: -0.137400190475
  z: 9.83113445292
gyroscopes: 
  x: -0.0175052583218
  y: -0.000638679601252
  z: 0.317281663418
magnetometers: 
  x: 0.105917111039
  y: -0.112733028829
  z: -0.604464709759
---
header: 
  seq: 10009
  stamp: 
    secs: 1586896655
    nsecs:  25652785
  frame_id: "imu"
frame_id: ''
accelerometers: 
  x: -0.199077122777
  y: -0.165977328664
  z: 9.84115432715
gyroscopes: 
  x: -0.0240814965218
  y: 0.0251766797155
  z: 0.381179958582
magnetometers: 
  x: 0.105789512396
  y: -0.113306611776
  z: -0.604459881783
---
header: 
  seq: 10010
  stamp: 
    secs: 1586896655
    nsecs:  37514071
  frame_id: "imu"
frame_id: ''
accelerometers: 
  x: -0.206952422729
  y: -0.15733356509
  z: 9.83057097381
gyroscopes: 
  x: -0.00961479265243
  y: 0.0346307530999
  z: 0.429103344679
magnetometers: 
  x: 0.105408720672
  y: -0.114077500999
  z: -0.60492515564
---
header: 
  seq: 10011
  stamp: 
    secs: 1586896655
    nsecs:  43546627
  frame_id: "imu"
frame_id: ''
accelerometers: 
  x: -0.203641599414
  y: -0.105845707842
  z: 9.75565864843
gyroscopes: 
  x: -0.00315165077336
  y: 0.00475767813623
  z: 0.455329686403
magnetometers: 
  x: 0.105045005679
  y: -0.114122509956
  z: -0.604973435402
---
header: 
  seq: 10012
  stamp: 
    secs: 1586896655
    nsecs:  55865268
  frame_id: "imu"
frame_id: ''
accelerometers: 
  x: -0.132574377753
  y: -0.0451069651386
  z: 9.80686393501
gyroscopes: 
  x: -0.0018271128647
  y: -0.0453471317887
  z: 0.452448099852
magnetometers: 
  x: 0.10496545583
  y: -0.1145998016
  z: -0.604866445065
---
header: 
  seq: 10013
  stamp: 
    secs: 1586896655
    nsecs:  67900437
  frame_id: "imu"
frame_id: ''
accelerometers: 
  x: -0.0174064305456
  y: 0.0115616991308
  z: 9.837705648
gyroscopes: 
  x: -0.00910696480423
  y: -0.040512625128
  z: 0.405344545841
magnetometers: 
  x: 0.10463629663
  y: -0.114959284663
  z: -0.605014264584
---
header: 
  seq: 10014
  stamp: 
    secs: 1586896655
    nsecs:  73600068
  frame_id: "imu"
frame_id: ''
accelerometers: 
  x: -0.0051839305601
  y: -0.00963079385867
  z: 9.83453169414
gyroscopes: 
  x: -0.0148410918191
  y: -0.0173995569348
  z: 0.351140290499
magnetometers: 
  x: 0.104715161026
  y: -0.115891955793
  z: -0.605087935925
---
header: 
  seq: 10015
  stamp: 
    secs: 1586896655
    nsecs:  85608753
  frame_id: "imu"
frame_id: ''
accelerometers: 
  x: -0.0312478324032
  y: -0.0452997934302
  z: 9.82962872453
gyroscopes: 
  x: -0.0188109520823
  y: 0.00600168574601
  z: 0.323998451233
magnetometers: 
  x: 0.104172475636
  y: -0.116308040917
  z: -0.605048418045
---
header: 
  seq: 10016
  stamp: 
    secs: 1586896655
    nsecs:  97619942
  frame_id: "imu"
frame_id: ''
accelerometers: 
  x: -0.0689143818754
  y: -0.0859892891864
  z: 9.86023662876
gyroscopes: 
  x: -0.0223523564637
  y: 0.0278586354107
  z: 0.334370583296
magnetometers: 
  x: 0.103627964854
  y: -0.116617023945
  z: -0.60502243042
---
header: 
  seq: 10017
  stamp: 
    secs: 1586896655
    nsecs: 103541930
  frame_id: "imu"
frame_id: ''
accelerometers: 
  x: -0.0849533702674
  y: -0.0621624233971
  z: 9.82858359939
gyroscopes: 
  x: -0.00684341369197
  y: 0.0326148569584
  z: 0.351786404848
magnetometers: 
  x: 0.103866845369
  y: -0.116804875433
  z: -0.604952335358
---
header: 
  seq: 10018
  stamp: 
    secs: 1586896655
    nsecs: 115907310
  frame_id: "imu"
frame_id: ''
accelerometers: 
  x: -0.065299488447
  y: -0.00234526165163
  z: 9.77135598378
gyroscopes: 
  x: -0.00103343348019
  y: -0.00310064293444
  z: 0.335678040981
magnetometers: 
  x: 0.103957213461
  y: -0.116950191557
  z: -0.604979217052
---
header: 
  seq: 10019
  stamp: 
    secs: 1586896655
    nsecs: 127859778
  frame_id: "imu"
frame_id: ''
accelerometers: 
  x: 0.0352299334424
  y: 0.0663710084023
  z: 9.80372096081
gyroscopes: 
  x: 0.00294046336785
  y: -0.0397428236902
  z: 0.258291512728
magnetometers: 
  x: 0.103483684361
  y: -0.117391221225
  z: -0.605331063271
---
header: 
  seq: 10020
  stamp: 
    secs: 1586896655
    nsecs: 133671857
  frame_id: "imu"
frame_id: ''
accelerometers: 
  x: 0.0821980710768
  y: 0.0768741909066
  z: 9.8122228317
gyroscopes: 
  x: -0.00591788347811
  y: -0.0341510996222
  z: 0.13401453197
magnetometers: 
  x: 0.103282444179
  y: -0.117996938527
  z: -0.605439543724
---
header: 
  seq: 10021
  stamp: 
    secs: 1586896655
    nsecs: 145573939
  frame_id: "imu"
frame_id: ''
accelerometers: 
  x: -0.000235104522173
  y: -0.000204626043874
  z: 9.8303488555
gyroscopes: 
  x: -0.0175995342433
  y: -0.0220509730279
  z: 0.0220284275711
magnetometers: 
  x: 0.102743811905
  y: -0.118593715131
  z: -0.605341672897
---
header: 
  seq: 10022
  stamp: 
    secs: 1586896655
    nsecs: 157685355
  frame_id: "imu"
frame_id: ''
accelerometers: 
  x: -0.110187262444
  y: -0.0761725956756
  z: 9.83873323748
gyroscopes: 
  x: -0.02095397003
  y: -0.00379712623544
  z: -0.0150691494346
magnetometers: 
  x: 0.102239757776
  y: -0.118739813566
  z: -0.605227231979
---
header: 
  seq: 10023
  stamp: 
    secs: 1586896655
    nsecs: 163713820
  frame_id: "imu"
frame_id: ''
accelerometers: 
  x: -0.129917734898
  y: -0.0912077818865
  z: 9.82170962197
gyroscopes: 
  x: -0.0215698815882
  y: 0.0111769735813
  z: -0.010588481091
magnetometers: 
  x: 0.101985998452
  y: -0.118542194366
  z: -0.605098545551
---
header: 
  seq: 10024
  stamp: 
    secs: 1586896655
    nsecs: 175959628
  frame_id: "imu"
frame_id: ''
accelerometers: 
  x: -0.124627912261
  y: -0.087102666389
  z: 9.81408745652
gyroscopes: 
  x: -0.0227614846081
  y: 0.01653617993
  z: -0.00560863222927
magnetometers: 
  x: 0.101839013398
  y: -0.117994494736
  z: -0.605241775513
---
header: 
  seq: 10025
  stamp: 
    secs: 1586896655
    nsecs: 187882450
  frame_id: "imu"
frame_id: ''
accelerometers: 
  x: -0.107134432478
  y: -0.0835684643808
  z: 9.82168741013
gyroscopes: 
  x: -0.016493069008
  y: 0.00324445171282
  z: -0.00593287451193
magnetometers: 
  x: 0.101938769221
  y: -0.117724038661
  z: -0.605386614799
---
header: 
  seq: 10026
  stamp: 
    secs: 1586896655
    nsecs: 193617027
  frame_id: "imu"
frame_id: ''
accelerometers: 
  x: -0.0920011698871
  y: -0.0754894676831
  z: 9.82151672974
gyroscopes: 
  x: -0.00256721605547
  y: -0.0117474934086
  z: -0.0168184936047
magnetometers: 
  x: 0.101846463978
  y: -0.118053458631
  z: -0.605451107025
---
header: 
  seq: 10027
  stamp: 
    secs: 1586896655
    nsecs: 205607351
  frame_id: "imu"
frame_id: ''
accelerometers: 
  x: -0.0949163540809
  y: -0.0646982072188
  z: 9.81707787051
gyroscopes: 
  x: 0.0103987194598
  y: -0.0153943132609
  z: -0.0202592387795
magnetometers: 
  x: 0.102877244353
  y: -0.11888641119
  z: -0.605471909046
---
header: 
  seq: 10028
  stamp: 
    secs: 1586896655
    nsecs: 217692543
  frame_id: "imu"
frame_id: ''
accelerometers: 
  x: -0.105221566328
  y: -0.0675116435046
  z: 9.81670728363
gyroscopes: 
  x: 0.00375521928072
  y: -0.00985580403358
  z: -0.0121008204296
magnetometers: 
  x: 0.103040076792
  y: -0.11915306747
  z: -0.605245471001
---
header: 
  seq: 10029
  stamp: 
    secs: 1586896655
    nsecs: 235795624
  frame_id: "imu"
frame_id: ''
accelerometers: 
  x: -0.0873403019366
  y: -0.05681165522
  z: 9.82013258191
gyroscopes: 
  x: 0.0034229781013
  y: -0.00628054048866
  z: -0.000916636432521
magnetometers: 
  x: 0.10267034173
  y: -0.118999049067
  z: -0.605232357979
---
header: 
  seq: 10030
  stamp: 
    secs: 1586896655
    nsecs: 235893661
  frame_id: "imu"
frame_id: ''
accelerometers: 
  x: -0.0887818516476
  y: -0.068686185443
  z: 9.79649393217
gyroscopes: 
  x: -0.00238635996357
  y: -0.00416076369584
  z: -0.00734214717522
magnetometers: 
  x: 0.102559871972
  y: -0.118706956506
  z: -0.605219781399
---
header: 
  seq: 10031
  stamp: 
    secs: 1586896655
    nsecs: 247611266
  frame_id: "imu"
frame_id: ''
accelerometers: 
  x: -0.0900288103682
  y: -0.065402921422
  z: 9.82431892768
gyroscopes: 
  x: -0.0090999128297
  y: -0.00508789997548
  z: 0.00135730195325
magnetometers: 
  x: 0.102538913488
  y: -0.118485666811
  z: -0.605265080929
---
header: 
  seq: 10032
  stamp: 
    secs: 1586896655
    nsecs: 259550722
  frame_id: "imu"
frame_id: ''
accelerometers: 
  x: -0.087195523171
  y: -0.0679706804176
  z: 9.83469419122
gyroscopes: 
  x: -0.0134889259934
  y: -0.00950145348907
  z: 0.0107792150229
magnetometers: 
  x: 0.102226912975
  y: -0.118630260229
  z: -0.605231761932
---
header: 
  seq: 10033
  stamp: 
    secs: 1586896655
    nsecs: 265592043
  frame_id: "imu"
frame_id: ''
accelerometers: 
  x: -0.0736226691642
  y: -0.0501883235235
  z: 9.82037574301
gyroscopes: 
  x: -0.0104756709188
  y: -0.0130943180993
  z: 0.0134630221874
magnetometers: 
  x: 0.102012373507
  y: -0.118734970689
  z: -0.605548739433
---
header: 
  seq: 10034
  stamp: 
    secs: 1586896655
    nsecs: 277735880
  frame_id: "imu"
frame_id: ''
accelerometers: 
  x: -0.069975398703
  y: -0.0394395048283
  z: 9.81433061763
gyroscopes: 
  x: -0.0179623886943
  y: -0.0112134469673
  z: 0.00434702215716
magnetometers: 
  x: 0.101483613253
  y: -0.118986822665
  z: -0.605586588383
---
header: 
  seq: 10035
  stamp: 
    secs: 1586896655
    nsecs: 289587349
  frame_id: "imu"
frame_id: ''
accelerometers: 
  x: -0.0972667257325
  y: -0.0525506367747
  z: 9.80397464331
gyroscopes: 
  x: -0.0250949114561
  y: -0.00908487103879
  z: -0.0125672724098
magnetometers: 
  x: 0.10179143399
  y: -0.11899650842
  z: -0.605576336384
---
header: 
  seq: 10036
  stamp: 
    secs: 1586896655
    nsecs: 295752518
  frame_id: "imu"
frame_id: ''
accelerometers: 
  x: -0.110364262978
  y: -0.059203039302
  z: 9.81678560957
gyroscopes: 
  x: -0.0308616310358
  y: -0.00699693523347
  z: -0.0269670598209
magnetometers: 
  x: 0.101815223694
  y: -0.118689090014
  z: -0.605613589287
---
header: 
  seq: 10037
  stamp: 
    secs: 1586896655
    nsecs: 308064599
  frame_id: "imu"
frame_id: ''
accelerometers: 
  x: -0.127186391972
  y: -0.0658833847156
  z: 9.83556162171
gyroscopes: 
  x: -0.0184880457819
  y: -0.00428784778342
  z: -0.0292526017874
magnetometers: 
  x: 0.102235235274
  y: -0.118484094739
  z: -0.60573130846
---
header: 
  seq: 10038
  stamp: 
    secs: 1586896655
    nsecs: 319682395
  frame_id: "imu"
frame_id: ''
accelerometers: 
  x: -0.124445861092
  y: -0.0698751440658
  z: 9.82176105989
gyroscopes: 
  x: -0.00966396555305
  y: -0.00128834263887
  z: -0.00826720148325
magnetometers: 
  x: 0.102653823793
  y: -0.118488036096
  z: -0.605739951134
---
header: 
  seq: 10039
  stamp: 
    secs: 1586896655
    nsecs: 325669790
  frame_id: "imu"
frame_id: ''
accelerometers: 
  x: -0.0893622453514
  y: -0.0729415732985
  z: 9.81836148058
gyroscopes: 
  x: -0.00653445674106
  y: -0.00204738718458
  z: 0.00072439602809
magnetometers: 
  x: 0.102576188743
  y: -0.118334658444
  z: -0.605791389942
---
header: 
  seq: 10040
  stamp: 
    secs: 1586896655
    nsecs: 337761284
  frame_id: "imu"
frame_id: ''
accelerometers: 
  x: -0.0728135219055
  y: -0.0816319524935
  z: 9.8259965055
gyroscopes: 
  x: -0.00688584474847
  y: -0.00358450552449
  z: -0.00687478017062
magnetometers: 
  x: 0.101729646325
  y: -0.118396475911
  z: -0.605660200119
---
header: 
  seq: 10041
  stamp: 
    secs: 1586896655
    nsecs: 349608755
