header: 
  seq: 2784
  stamp: 
    secs: 1584735946
    nsecs: 506467064
  frame_id: "imu"
frame_id: ''
accelerometers: 
  x: 1.76964572011
  y: -0.0473258376314
  z: -9.64408452561
gyroscopes: 
  x: -0.00261169904843
  y: 0.00234540551901
  z: -0.000848676252645
magnetometers: 
  x: 0.408083885908
  y: 0.0385191999376
  z: 0.607741236687
---
header: 
  seq: 2785
  stamp: 
    secs: 1584735946
    nsecs: 518299444
  frame_id: "imu"
frame_id: ''
accelerometers: 
  x: 1.78282756551
  y: -0.0526136555409
  z: -9.63779682364
gyroscopes: 
  x: -0.00291619310156
  y: 0.00272072711959
  z: -0.000461268267827
magnetometers: 
  x: 0.407560944557
  y: 0.0388255640864
  z: 0.607903838158
---
header: 
  seq: 2786
  stamp: 
    secs: 1584735946
    nsecs: 524454872
  frame_id: "imu"
frame_id: ''
accelerometers: 
  x: 1.79762415263
  y: -0.0533600671611
  z: -9.64479647327
gyroscopes: 
  x: -0.00364559539594
  y: -0.00204787170514
  z: -0.00100557552651
magnetometers: 
  x: 0.407558470964
  y: 0.0391187742352
  z: 0.607556343079
---
header: 
  seq: 2787
  stamp: 
    secs: 1584735946
    nsecs: 536563869
  frame_id: "imu"
frame_id: ''
accelerometers: 
  x: 1.80133148271
  y: -0.0533500800567
  z: -9.65224971188
gyroscopes: 
  x: -0.00234891823493
  y: -0.00150967400987
  z: -0.000481210154248
magnetometers: 
  x: 0.407566875219
  y: 0.0383791513741
  z: 0.607718646526
---
header: 
  seq: 2788
  stamp: 
    secs: 1584735946
    nsecs: 548473352
  frame_id: "imu"
frame_id: ''
accelerometers: 
  x: 1.80361988591
  y: -0.0573342360557
  z: -9.64932944052
gyroscopes: 
  x: -0.00362915894948
  y: 0.00192657182924
  z: -0.000396323099267
magnetometers: 
  x: 0.406843781471
  y: 0.0381788685918
  z: 0.607540428638
---
header: 
  seq: 2789
  stamp: 
    secs: 1584735946
    nsecs: 554455528
  frame_id: "imu"
frame_id: ''
accelerometers: 
  x: 1.80066921941
  y: -0.0570482450214
  z: -9.64239817995
gyroscopes: 
  x: -0.00444333488122
  y: 0.000877749931533
  z: -0.00100522302091
magnetometers: 
  x: 0.40632635355
  y: 0.0385567732155
  z: 0.607822775841
---
header: 
  seq: 2790
  stamp: 
    secs: 1584735946
    nsecs: 566556819
  frame_id: "imu"
frame_id: ''
accelerometers: 
  x: 1.78940782068
  y: -0.0593937304354
  z: -9.64354910356
gyroscopes: 
  x: -0.00409069750458
  y: -0.00281624263152
  z: -0.00121156254318
magnetometers: 
  x: 0.406659722328
  y: 0.0380595475435
  z: 0.608051121235
---
header: 
  seq: 2791
  stamp: 
    secs: 1584735946
    nsecs: 578534558
  frame_id: "imu"
frame_id: ''
accelerometers: 
  x: 1.77317477102
  y: -0.0523547762759
  z: -9.64773018863
gyroscopes: 
  x: -0.0042145466432
  y: -0.00213586678728
  z: -0.00171133491676
magnetometers: 
  x: 0.40714725852
  y: 0.0375315919518
  z: 0.608033120632
---
header: 
  seq: 2792
  stamp: 
    secs: 1584735946
    nsecs: 584533918
  frame_id: "imu"
frame_id: ''
accelerometers: 
  x: 1.7778617598
  y: -0.0473570730198
  z: -9.6489255359
gyroscopes: 
  x: -0.00411544600502
  y: 0.00124654732645
  z: -0.000738580478355
magnetometers: 
  x: 0.40727943182
  y: 0.0350404344499
  z: 0.607866168022
---
header: 
  seq: 2793
  stamp: 
    secs: 1584735946
    nsecs: 596538294
  frame_id: "imu"
frame_id: ''
accelerometers: 
  x: 1.78408808696
  y: -0.0434865380297
  z: -9.63885539278
gyroscopes: 
  x: -0.00440982077271
  y: 0.00296736345626
  z: -0.00105004617944
magnetometers: 
  x: 0.40736785531
  y: 0.0353301987052
  z: 0.607963204384
---
header: 
  seq: 2794
  stamp: 
    secs: 1584735946
    nsecs: 608537020
  frame_id: "imu"
frame_id: ''
accelerometers: 
  x: 1.79198746191
  y: -0.0473460949681
  z: -9.63977075406
gyroscopes: 
  x: -0.00367645756342
  y: -0.000928213587031
  z: -0.000940607860684
magnetometers: 
  x: 0.406481295824
  y: 0.0373202934861
  z: 0.607947230339
---
header: 
  seq: 2795
  stamp: 
    secs: 1584735946
    nsecs: 614450356
  frame_id: "imu"
frame_id: ''
accelerometers: 
  x: 1.79516726099
  y: -0.0495739042525
  z: -9.64570423576
gyroscopes: 
  x: -0.00411898968741
  y: -0.00224046129733
  z: -0.00111845671199
magnetometers: 
  x: 0.406865417957
  y: 0.0378812588751
  z: 0.608025550842
---
header: 
  seq: 2796
  stamp: 
    secs: 1584735946
    nsecs: 626480625
  frame_id: "imu"
frame_id: ''
accelerometers: 
  x: 1.79574622992
  y: -0.0540833262347
  z: -9.64958429207
gyroscopes: 
  x: -0.00392909394577
  y: 0.000411152082961
  z: -0.000464340031613
magnetometers: 
  x: 0.406568497419
  y: 0.0386472046375
  z: 0.60768032074
---
header: 
  seq: 2797
  stamp: 
    secs: 1584735946
    nsecs: 638498099
  frame_id: "imu"
frame_id: ''
accelerometers: 
  x: 1.79493155254
  y: -0.0586316189225
  z: -9.64083399938
gyroscopes: 
  x: -0.00451852241531
  y: 0.000722566794138
  z: 9.41069447435e-05
magnetometers: 
  x: 0.407266765833
  y: 0.0386939048767
  z: 0.607876062393
---
header: 
  seq: 2798
  stamp: 
    secs: 1584735946
    nsecs: 644568918
  frame_id: "imu"
frame_id: ''
accelerometers: 
  x: 1.79524383336
  y: -0.0614624675674
  z: -9.64186568051
gyroscopes: 
  x: -0.00441393023357
  y: -0.0012430754723
  z: 2.17463966692e-05
magnetometers: 
  x: 0.406849592924
  y: 0.0385796800256
  z: 0.607808589935
---
header: 
  seq: 2799
  stamp: 
    secs: 1584735946
    nsecs: 656538936
  frame_id: "imu"
frame_id: ''
accelerometers: 
  x: 1.79001806154
  y: -0.059865540065
  z: -9.6491499923
gyroscopes: 
  x: -0.0048131942749
  y: -0.00226737721823
  z: -0.00111774797551
magnetometers: 
  x: 0.406742304564
  y: 0.0378760769963
  z: 0.607840716839
---
header: 
  seq: 2800
  stamp: 
    secs: 1584735946
    nsecs: 668488064
  frame_id: "imu"
frame_id: ''
accelerometers: 
  x: 1.78451493407
  y: -0.0555154870628
  z: -9.65097019347
gyroscopes: 
  x: -0.0045278230682
  y: 9.39296442084e-05
  z: -4.06418112107e-05
magnetometers: 
  x: 0.405953645706
  y: 0.0375751703978
  z: 0.607811629772
---
header: 
  seq: 2801
  stamp: 
    secs: 1584735946
    nsecs: 674486510
  frame_id: "imu"
frame_id: ''
accelerometers: 
  x: 1.78114385021
  y: -0.050554444289
  z: -9.64570072863
gyroscopes: 
  x: -0.00387754966505
  y: 0.000371947651729
  z: -0.00140014640056
magnetometers: 
  x: 0.405778408051
  y: 0.0376495607197
  z: 0.607539594173
---
header: 
  seq: 2802
  stamp: 
    secs: 1584735946
    nsecs: 686555177
  frame_id: "imu"
frame_id: ''
accelerometers: 
  x: 1.77913294878
  y: -0.0429433984632
  z: -9.64577262482
gyroscopes: 
  x: -0.0037106689997
  y: -0.0009279709775
  z: -0.00101923896
magnetometers: 
  x: 0.406112968922
  y: 0.0371397696435
  z: 0.607632935047
---
header: 
  seq: 2803
  stamp: 
    secs: 1584735946
    nsecs: 698452099
  frame_id: "imu"
frame_id: ''
accelerometers: 
  x: 1.78107268467
  y: -0.0409665225994
  z: -9.64761328425
gyroscopes: 
  x: -0.00363771128468
  y: -0.000907913025003
  z: -0.00118838797789
magnetometers: 
  x: 0.406264156103
  y: 0.0371025875211
  z: 0.607531189919
---
header: 
  seq: 2804
  stamp: 
    secs: 1584735946
    nsecs: 704446742
  frame_id: "imu"
frame_id: ''
accelerometers: 
  x: 1.78330775024
  y: -0.0438583715833
  z: -9.6462232912
gyroscopes: 
  x: -0.00374396215193
  y: 0.00034858554136
  z: -0.000966162537225
magnetometers: 
  x: 0.406237840652
  y: 0.036938495934
  z: 0.607676506042
---
header: 
  seq: 2805
  stamp: 
    secs: 1584735946
    nsecs: 716449651
  frame_id: "imu"
frame_id: ''
accelerometers: 
  x: 1.78747685262
  y: -0.0524996600727
  z: -9.64251391529
gyroscopes: 
  x: -0.00433031795546
  y: 0.00120539416093
  z: -0.0018414008664
magnetometers: 
  x: 0.407061696053
  y: 0.0371819250286
  z: 0.60777503252
---
header: 
  seq: 2806
  stamp: 
    secs: 1584735946
    nsecs: 728439372
  frame_id: "imu"
frame_id: ''
accelerometers: 
  x: 1.79246633147
  y: -0.0621215936298
  z: -9.64107306883
gyroscopes: 
  x: -0.00385872460902
  y: -0.00149119622074
  z: -0.000814245082438
magnetometers: 
  x: 0.406570404768
  y: 0.0378377065063
  z: 0.607564210892
---
header: 
  seq: 2807
  stamp: 
    secs: 1584735946
    nsecs: 740453559
  frame_id: "imu"
frame_id: ''
accelerometers: 
  x: 1.7928122223
  y: -0.0648027727049
  z: -9.64647405109
gyroscopes: 
  x: -0.00412764167413
  y: -0.00270713679492
  z: -0.000764270487707
magnetometers: 
  x: 0.406513392925
  y: 0.0378638096154
  z: 0.607454299927
---
header: 
  seq: 2808
  stamp: 
    secs: 1584735946
    nsecs: 746445671
  frame_id: "imu"
frame_id: ''
accelerometers: 
  x: 1.79219920497
  y: -0.0635513250388
  z: -9.64884428735
gyroscopes: 
  x: -0.00408145040274
  y: 0.000375882314984
  z: -0.000888872193173
magnetometers: 
  x: 0.406649857759
  y: 0.037516888231
  z: 0.60772550106
---
header: 
  seq: 2809
  stamp: 
    secs: 1584735946
    nsecs: 758549795
  frame_id: "imu"
frame_id: ''
accelerometers: 
  x: 1.79540662271
  y: -0.0572133724553
  z: -9.64576561056
gyroscopes: 
  x: -0.0042316201143
  y: 0.0014643803006
  z: -0.000215005216887
magnetometers: 
  x: 0.407109737396
  y: 0.0374743044376
  z: 0.607563734055
---
header: 
  seq: 2810
  stamp: 
    secs: 1584735946
    nsecs: 770552185
  frame_id: "imu"
frame_id: ''
accelerometers: 
  x: 1.79394648703
  y: -0.0533494772685
  z: -9.64327379375
gyroscopes: 
  x: -0.00390437152237
  y: -0.000895758101251
  z: -0.000842289300635
magnetometers: 
  x: 0.407399445772
  y: 0.0373423546553
  z: 0.607312917709
---
header: 
  seq: 2811
  stamp: 
    secs: 1584735946
    nsecs: 776540482
  frame_id: "imu"
frame_id: ''
accelerometers: 
  x: 1.79233992861
  y: -0.0486320979243
  z: -9.64115840903
gyroscopes: 
  x: -0.00462225684896
  y: -0.00132337841205
  z: -0.000699455616996
magnetometers: 
  x: 0.407267838717
  y: 0.0377291366458
  z: 0.607427835464
---
header: 
  seq: 2812
  stamp: 
    secs: 1584735946
    nsecs: 788536083
  frame_id: "imu"
frame_id: ''
accelerometers: 
  x: 1.78949462218
  y: -0.049963963016
  z: -9.64621452337
gyroscopes: 
  x: -0.00500802462921
  y: -0.00127516954672
  z: -0.000870041840244
magnetometers: 
  x: 0.407719731331
  y: 0.0393425747752
  z: 0.607378602028
---
header: 
  seq: 2813
  stamp: 
    secs: 1584735946
    nsecs: 800537375
  frame_id: "imu"
frame_id: ''
accelerometers: 
  x: 1.78446568811
  y: -0.0512354944889
  z: -9.64449661354
gyroscopes: 
  x: -0.00459033437073
  y: -0.000291756296065
  z: -0.00162672554143
magnetometers: 
  x: 0.407403260469
  y: 0.0390063263476
  z: 0.607304811478
---
header: 
  seq: 2814
  stamp: 
    secs: 1584735946
    nsecs: 806540715
  frame_id: "imu"
frame_id: ''
accelerometers: 
  x: 1.78118885839
  y: -0.0514687963547
  z: -9.64141384509
gyroscopes: 
  x: -0.00459411088377
  y: -0.000500301015563
  z: -0.00134261976928
magnetometers: 
  x: 0.407527178526
  y: 0.0383953861892
  z: 0.607619285583
---
header: 
  seq: 2815
  stamp: 
    secs: 1584735946
    nsecs: 818538638
  frame_id: "imu"
frame_id: ''
accelerometers: 
  x: 1.77836240279
  y: -0.0507272892385
  z: -9.6447199009
gyroscopes: 
  x: -0.00409343745559
  y: -0.000993500463665
  z: -0.00129276583903
magnetometers: 
  x: 0.407739818096
  y: 0.0381543599069
  z: 0.607331335545
---
header: 
  seq: 2816
  stamp: 
    secs: 1584735946
    nsecs: 830534467
  frame_id: "imu"
frame_id: ''
accelerometers: 
  x: 1.78453378491
  y: -0.0505696646911
  z: -9.65201531861
gyroscopes: 
  x: -0.00402167858556
  y: -0.000776722386945
  z: -0.00165743334219
magnetometers: 
  x: 0.407231479883
  y: 0.0378044098616
  z: 0.607546150684
---
header: 
  seq: 2817
  stamp: 
    secs: 1584735946
    nsecs: 836537494
  frame_id: "imu"
frame_id: ''
accelerometers: 
  x: 1.78310316758
  y: -0.0541777630525
  z: -9.64768342688
gyroscopes: 
  x: -0.00396706350148
  y: -1.17482850328e-05
  z: -0.00144776992965
magnetometers: 
  x: 0.406821876764
  y: 0.037976488471
  z: 0.607627987862
---
header: 
  seq: 2818
  stamp: 
    secs: 1584735946
    nsecs: 848536690
  frame_id: "imu"
frame_id: ''
accelerometers: 
  x: 1.78992731451
  y: -0.0585121800942
  z: -9.64275590735
gyroscopes: 
  x: -0.00451953243464
  y: 0.00070643867366
  z: -0.000660855555907
magnetometers: 
  x: 0.40720936656
  y: 0.0381473191082
  z: 0.607709944248
---
header: 
  seq: 2819
  stamp: 
    secs: 1584735946
    nsecs: 860536300
  frame_id: "imu"
frame_id: ''
accelerometers: 
  x: 1.79783355759
  y: -0.0588099528978
  z: -9.64377882066
gyroscopes: 
  x: -0.00385553110391
  y: -0.00061466259649
  z: -0.000760897237342
magnetometers: 
  x: 0.408285021782
  y: 0.0378981791437
  z: 0.607897341251
---
header: 
  seq: 2820
  stamp: 
    secs: 1584735946
    nsecs: 866538309
  frame_id: "imu"
frame_id: ''
accelerometers: 
  x: 1.79393172785
  y: -0.0588586234782
  z: -9.64535060002
gyroscopes: 
  x: -0.00375798693858
  y: -0.0012040247675
  z: -0.000380791956559
magnetometers: 
  x: 0.407446295023
  y: 0.0352247357368
  z: 0.607562661171
---
header: 
  seq: 2821
  stamp: 
    secs: 1584735946
    nsecs: 878536971
  frame_id: "imu"
frame_id: ''
accelerometers: 
  x: 1.78454021465
  y: -0.0533488653471
  z: -9.642746555
gyroscopes: 
  x: -0.00476137362421
  y: 0.00089972699061
  z: -0.000695954135153
magnetometers: 
  x: 0.407250106335
  y: 0.0367900058627
  z: 0.607452332973
---
header: 
  seq: 2822
  stamp: 
    secs: 1584735946
    nsecs: 890539953
  frame_id: "imu"
frame_id: ''
accelerometers: 
  x: 1.78209662089
  y: -0.0511296001288
  z: -9.64035819856
gyroscopes: 
  x: -0.00424264371395
  y: 0.00137567450292
  z: -0.000505338422954
magnetometers: 
  x: 0.407304137945
  y: 0.0375936180353
  z: 0.607332229614
---
header: 
  seq: 2823
  stamp: 
    secs: 1584735946
    nsecs: 902487506
  frame_id: "imu"
frame_id: ''
accelerometers: 
  x: 1.78721703264
  y: -0.0508115106229
  z: -9.64636591454
gyroscopes: 
  x: -0.00314606283791
  y: -0.000591031624936
  z: -0.000801629736088
magnetometers: 
  x: 0.407044321299
  y: 0.0375329852104
  z: 0.607301056385
---
header: 
  seq: 2824
  stamp: 
    secs: 1584735946
    nsecs: 908537040
  frame_id: "imu"
frame_id: ''
accelerometers: 
  x: 1.78521168417
  y: -0.0469434324513
  z: -9.6465517925
gyroscopes: 
  x: -0.00375620322302
  y: -0.00099404330831
  z: -0.00129613804165
magnetometers: 
  x: 0.406810522079
  y: 0.0378478243947
  z: 0.60711735487
---
header: 
  seq: 2825
  stamp: 
    secs: 1584735946
    nsecs: 920537673
  frame_id: "imu"
frame_id: ''
accelerometers: 
  x: 1.78621107047
  y: -0.0486231519995
  z: -9.64235083368
gyroscopes: 
  x: -0.00439213775098
  y: 0.00248267361894
  z: -0.00201862072572
magnetometers: 
  x: 0.407008826733
  y: 0.0378472134471
  z: 0.60737323761
---
header: 
  seq: 2826
  stamp: 
    secs: 1584735946
    nsecs: 932537939
  frame_id: "imu"
frame_id: ''
accelerometers: 
  x: 1.79466018825
  y: -0.0538824242346
  z: -9.64459539774
gyroscopes: 
  x: -0.00453940639272
  y: -0.000252030120464
  z: -0.00143666821532
magnetometers: 
  x: 0.406881541014
  y: 0.0384521819651
  z: 0.607592284679
---
header: 
  seq: 2827
  stamp: 
    secs: 1584735946
    nsecs: 938460483
  frame_id: "imu"
frame_id: ''
accelerometers: 
  x: 1.78854024407
  y: -0.0574427150986
  z: -9.64499637975
gyroscopes: 
  x: -0.00350544159301
  y: -0.00273686600849
  z: -0.00103446957655
magnetometers: 
  x: 0.406705230474
  y: 0.0384627208114
  z: 0.607393682003
---
header: 
  seq: 2828
  stamp: 
    secs: 1584735946
    nsecs: 950510366
  frame_id: "imu"
frame_id: ''
accelerometers: 
  x: 1.78346542502
  y: -0.0595398609078
  z: -9.64899684757
gyroscopes: 
  x: -0.00323909125291
  y: -0.000457398302387
  z: -0.00194184528664
magnetometers: 
  x: 0.406400591135
  y: 0.0382435284555
  z: 0.60737746954
---
header: 
  seq: 2829
  stamp: 
    secs: 1584735946
    nsecs: 962509430
  frame_id: "imu"
frame_id: ''
accelerometers: 
  x: 1.78597711558
  y: -0.0584877854384
  z: -9.64390916904
gyroscopes: 
  x: -0.00336816627532
  y: 0.00127966678701
  z: -0.00150060595479
magnetometers: 
  x: 0.406893104315
  y: 0.0388560444117
  z: 0.607532501221
---
header: 
  seq: 2830
  stamp: 
    secs: 1584735946
    nsecs: 968509265
  frame_id: "imu"
frame_id: ''
accelerometers: 
  x: 1.79439160044
  y: -0.0518051339033
  z: -9.64269979325
gyroscopes: 
  x: -0.00291263801046
  y: -0.00054194079712
  z: -0.00138608599082
magnetometers: 
  x: 0.406651556492
  y: 0.0390157029033
  z: 0.607785761356
---
header: 
  seq: 2831
  stamp: 
    secs: 1584735946
    nsecs: 980494627
  frame_id: "imu"
frame_id: ''
accelerometers: 
  x: 1.7957628888
  y: -0.0513957311185
  z: -9.64294061627
gyroscopes: 
  x: -0.00361523637548
  y: -0.00218578940257
  z: 4.86322678626e-05
magnetometers: 
  x: 0.406666815281
  y: 0.0389149971306
  z: 0.607774436474
---
header: 
  seq: 2832
  stamp: 
    secs: 1584735946
    nsecs: 992488579
  frame_id: "imu"
frame_id: ''
accelerometers: 
  x: 1.78828510026
  y: -0.0523653113696
  z: -9.64562415626
gyroscopes: 
  x: -0.00309410342015
  y: -0.000513151811901
  z: -0.00109123624861
magnetometers: 
  x: 0.407092213631
  y: 0.038962919265
  z: 0.607747972012
---
header: 
  seq: 2833
  stamp: 
    secs: 1584735946
    nsecs: 998429631
  frame_id: "imu"
frame_id: ''
accelerometers: 
  x: 1.79342611641
  y: -0.0507906093988
  z: -9.64385363946
gyroscopes: 
  x: -0.00406934181228
  y: -3.71118076146e-05
  z: -0.00163607730065
magnetometers: 
  x: 0.407652944326
  y: 0.0386341251433
  z: 0.60789257288
---
header: 
  seq: 2834
  stamp: 
    secs: 1584735947
    nsecs:  10492824
  frame_id: "imu"
frame_id: ''
accelerometers: 
  x: 1.79478059976
  y: -0.0493897204918
  z: -9.64352338459
gyroscopes: 
  x: -0.00341133982874
  y: -0.000579216750339
  z: -0.000950020155869
magnetometers: 
  x: 0.407852828503
  y: 0.0383182913065
  z: 0.607784211636
---
header: 
  seq: 2835
  stamp: 
    secs: 1584735947
    nsecs:  22520533
  frame_id: "imu"
frame_id: ''
accelerometers: 
  x: 1.78976379451
  y: -0.0491671500825
  z: -9.64400269254
gyroscopes: 
  x: -0.00401732511818
  y: -0.00246754358523
  z: -0.00100953388028
magnetometers: 
  x: 0.407737284899
  y: 0.0381508097053
  z: 0.607924461365
---
header: 
  seq: 2836
  stamp: 
    secs: 1584735947
    nsecs:  28486130
  frame_id: "imu"
frame_id: ''
accelerometers: 
  x: 1.79161702117
  y: -0.0534553076966
  z: -9.6456492907
gyroscopes: 
  x: -0.00411041080952
  y: -0.00147799053229
  z: -0.000212510800338
magnetometers: 
  x: 0.407191693783
  y: 0.0386631041765
  z: 0.607572376728
---
header: 
  seq: 2837
  stamp: 
    secs: 1584735947
    nsecs:  40492477
  frame_id: "imu"
frame_id: ''
accelerometers: 
  x: 1.78850327306
  y: -0.0554309323182
  z: -9.650343586
gyroscopes: 
  x: -0.00330243213102
  y: -0.00217670132406
  z: -0.000559872481972
magnetometers: 
  x: 0.406460434198
  y: 0.0393307432532
  z: 0.60855525732
---
header: 
  seq: 2838
  stamp: 
    secs: 1584735947
    nsecs:  52485950
  frame_id: "imu"
frame_id: ''
accelerometers: 
  x: 1.78790910656
  y: -0.054295114955
  z: -9.64553355537
gyroscopes: 
  x: -0.00252941902727
  y: 9.12950490601e-05
  z: -0.000630785420071
magnetometers: 
  x: 0.407356768847
  y: 0.0396917872131
  z: 0.608360230923
---
header: 
  seq: 2839
  stamp: 
    secs: 1584735947
    nsecs:  58506105
  frame_id: "imu"
frame_id: ''
accelerometers: 
  x: 1.78695984301
  y: -0.0543854098872
  z: -9.64380512414
gyroscopes: 
  x: -0.00450275465846
  y: -2.72192410193e-05
  z: -0.00126981420908
magnetometers: 
  x: 0.407578200102
  y: 0.0390255078673
  z: 0.608039557934
---
header: 
  seq: 2840
  stamp: 
    secs: 1584735947
    nsecs:  70491323
  frame_id: "imu"
frame_id: ''
accelerometers: 
  x: 1.79151297627
  y: -0.0511010772872
  z: -9.64418740146
gyroscopes: 
  x: -0.0034761056304
  y: -0.000976374780294
  z: -0.0019058084581
magnetometers: 
  x: 0.406617581844
  y: 0.038537684828
  z: 0.608233630657
---
header: 
  seq: 2841
  stamp: 
    secs: 1584735947
    nsecs:  82495023
  frame_id: "imu"
frame_id: ''
accelerometers: 
  x: 1.79460611998
  y: -0.0482209233076
  z: -9.64594915043
gyroscopes: 
  x: -0.00322630698793
  y: -0.00174595997669
  z: -0.00110143551137
magnetometers: 
  x: 0.407042443752
  y: 0.0381761416793
  z: 0.608454883099
---
header: 
  seq: 2842
  stamp: 
    secs: 1584735947
    nsecs:  88493571
  frame_id: "imu"
frame_id: ''
accelerometers: 
  x: 1.79674240135
  y: -0.0508089396399
  z: -9.64377765161
gyroscopes: 
  x: -0.00317705189809
  y: -0.000414291775087
  z: -0.00087892083684
magnetometers: 
  x: 0.407080084085
  y: 0.038362134248
  z: 0.60828357935
---
header: 
  seq: 2843
  stamp: 
    secs: 1584735947
    nsecs: 100495910
  frame_id: "imu"
frame_id: ''
accelerometers: 
  x: 1.79744704249
  y: -0.0487865852332
  z: -9.64003729604
gyroscopes: 
  x: -0.00281904824078
  y: -0.000888473121449
  z: -0.000675127026625
magnetometers: 
  x: 0.407280176878
  y: 0.0384799875319
  z: 0.608442723751
---
header: 
  seq: 2844
  stamp: 
    secs: 1584735947
    nsecs: 112497336
  frame_id: "imu"
frame_id: ''
accelerometers: 
  x: 1.79485863343
  y: -0.0527947294625
  z: -9.64207201674
gyroscopes: 
  x: -0.00374770723283
  y: -0.000607481400948
  z: -0.000936717900913
magnetometers: 
  x: 0.407222181559
  y: 0.0383873209357
  z: 0.608693659306
---
header: 
  seq: 2845
  stamp: 
    secs: 1584735947
    nsecs: 118493958
  frame_id: "imu"
frame_id: ''
accelerometers: 
  x: 1.79255021036
  y: -0.0564060974933
  z: -9.64410966005
gyroscopes: 
  x: -0.00385151361115
  y: -0.00052090047393
  z: -0.00155707250815
magnetometers: 
  x: 0.407342553139
  y: 0.0385442301631
  z: 0.608463406563
---
header: 
  seq: 2846
  stamp: 
    secs: 1584735947
    nsecs: 142634062
  frame_id: "imu"
frame_id: ''
accelerometers: 
  x: 1.7887801903
  y: -0.0543562614245
  z: -9.64256886035
gyroscopes: 
  x: -0.0043724370189
  y: -0.000167339923792
  z: -0.000893077580258
magnetometers: 
  x: 0.407544791698
  y: 0.0389518328011
  z: 0.60849148035
---
header: 
  seq: 2847
  stamp: 
    secs: 1584735947
    nsecs: 142716306
  frame_id: "imu"
frame_id: ''
accelerometers: 
  x: 1.7899843054
  y: -0.0520449111757
  z: -9.6427944858
gyroscopes: 
  x: -0.00380721199326
  y: 1.54274166562e-05
  z: -0.0013862644555
magnetometers: 
  x: 0.40734359622
  y: 0.0402742400765
  z: 0.608506560326
---
header: 
  seq: 2848
  stamp: 
    secs: 1584735947
    nsecs: 154458226
  frame_id: "imu"
frame_id: ''
accelerometers: 
  x: 1.78891258451
  y: -0.053754605737
  z: -9.64393547252
gyroscopes: 
  x: -0.00409745145589
  y: -0.000170468760189
  z: -0.000679072458297
magnetometers: 
  x: 0.407467931509
  y: 0.0411207377911
  z: 0.608786404133
---
header: 
  seq: 2849
  stamp: 
    secs: 1584735947
    nsecs: 160493356
  frame_id: "imu"
frame_id: ''
accelerometers: 
  x: 1.78553492477
  y: -0.055593812996
  z: -9.64424234652
gyroscopes: 
  x: -0.00292490469292
  y: 0.000685231003445
  z: -0.00152203277685
magnetometers: 
  x: 0.407356590033
  y: 0.0397774204612
  z: 0.60899490118
---
header: 
  seq: 2850
  stamp: 
    secs: 1584735947
    nsecs: 172532236
  frame_id: "imu"
frame_id: ''
accelerometers: 
  x: 1.78741240908
  y: -0.0570908192213
  z: -9.64369523403
gyroscopes: 
  x: -0.00383568927646
  y: -0.000542437424883
  z: -0.00146263733041
magnetometers: 
  x: 0.406943798065
  y: 0.0392474420369
  z: 0.609193444252
---
header: 
  seq: 2851
  stamp: 
    secs: 1584735947
    nsecs: 184551995
  frame_id: "imu"
frame_id: ''
accelerometers: 
  x: 1.7907573356
  y: -0.0545776216908
  z: -9.64293184844
gyroscopes: 
  x: -0.00381203601137
  y: -0.00192286190577
  z: -0.00128635717556
magnetometers: 
  x: 0.407612890005
  y: 0.0386247932911
  z: 0.608971893787
---
header: 
  seq: 2852
  stamp: 
    secs: 1584735947
    nsecs: 190538361
  frame_id: "imu"
frame_id: ''
accelerometers: 
  x: 1.79163762556
  y: -0.0543287523631
  z: -9.64543184856
gyroscopes: 
  x: -0.00400188984349
  y: -0.00215606740676
  z: -0.000751599902287
magnetometers: 
  x: 0.408078491688
  y: 0.0383737795055
  z: 0.608919680119
---
header: 
  seq: 2853
  stamp: 
    secs: 1584735947
    nsecs: 202496039
  frame_id: "imu"
frame_id: ''
accelerometers: 
  x: 1.78799649258
  y: -0.0515099777485
  z: -9.64500456306
gyroscopes: 
  x: -0.00421750871465
  y: -0.000423801800935
  z: -0.00211408175528
magnetometers: 
  x: 0.407185584307
  y: 0.0382057242095
  z: 0.609065532684
---
header: 
  seq: 2854
  stamp: 
    secs: 1584735947
    nsecs: 214499131
  frame_id: "imu"
frame_id: ''
accelerometers: 
  x: 1.78633089746
  y: -0.0498689690758
  z: -9.64660849113
gyroscopes: 
  x: -0.00388962752186
  y: 0.000776618020609
  z: -0.00164516631048
magnetometers: 
  x: 0.407175630331
  y: 0.0383666604757
  z: 0.609029531479
---
header: 
  seq: 2855
  stamp: 
    secs: 1584735947
    nsecs: 220490519
  frame_id: "imu"
frame_id: ''
accelerometers: 
  x: 1.78449900585
  y: -0.0526311957642
  z: -9.64478361379
gyroscopes: 
  x: -0.00441663525999
  y: -0.00151624332648
  z: -0.000554562022444
magnetometers: 
  x: 0.407064944506
  y: 0.0381891839206
  z: 0.609078645706
---
header: 
  seq: 2856
  stamp: 
    secs: 1584735947
    nsecs: 232492149
  frame_id: "imu"
frame_id: ''
accelerometers: 
  x: 1.78273477266
  y: -0.0558194156125
  z: -9.64505015577
gyroscopes: 
  x: -0.00427638366818
  y: -0.000193237297935
  z: -0.000904373184312
magnetometers: 
  x: 0.406839817762
  y: 0.0379141457379
  z: 0.609070837498
---
header: 
  seq: 2857
  stamp: 
    secs: 1584735947
    nsecs: 244492948
  frame_id: "imu"
frame_id: ''
accelerometers: 
  x: 1.78517734351
  y: -0.0574405459744
  z: -9.6457667796
gyroscopes: 
  x: -0.0028062525671
  y: 0.000343344319845
  z: 8.53003002703e-05
magnetometers: 
  x: 0.406722396612
  y: 0.0376193001866
  z: 0.609070420265
---
header: 
  seq: 2858
  stamp: 
    secs: 1584735947
    nsecs: 250437916
  frame_id: "imu"
frame_id: ''
accelerometers: 
  x: 1.78622290704
  y: -0.0593473020443
  z: -9.6446585261
gyroscopes: 
  x: -0.00315677840263
  y: -0.000685978098772
  z: -0.000261316774413
magnetometers: 
  x: 0.406867086887
  y: 0.0376766957343
  z: 0.609184265137
---
header: 
  seq: 2859
  stamp: 
    secs: 1584735947
    nsecs: 262499542
  frame_id: "imu"
frame_id: ''
accelerometers: 
  x: 1.78398316529
  y: -0.0579910788295
  z: -9.64436275803
gyroscopes: 
  x: -0.00417242292315
  y: -0.00107902346645
  z: -0.00135322986171
magnetometers: 
  x: 0.406423181295
  y: 0.037890996784
  z: 0.609425127506
---
header: 
  seq: 2860
  stamp: 
    secs: 1584735947
    nsecs: 274455665
  frame_id: "imu"
frame_id: ''
accelerometers: 
  x: 1.78669607751
  y: -0.0555421832735
  z: -9.64762965087
gyroscopes: 
  x: -0.00396230909973
  y: -0.000836131279357
  z: -0.00119223841466
magnetometers: 
  x: 0.406651198864
  y: 0.0379774421453
  z: 0.609345674515
---
header: 
  seq: 2861
  stamp: 
    secs: 1584735947
    nsecs: 286512560
  frame_id: "imu"
frame_id: ''
accelerometers: 
  x: 1.7860390749
  y: -0.0507050637069
  z: -9.6461005416
gyroscopes: 
  x: -0.00377367227338
  y: 7.62823838159e-05
  z: -0.00186791783199
magnetometers: 
  x: 0.406641185284
  y: 0.0383590385318
  z: 0.609268665314
---
header: 
  seq: 2862
  stamp: 
    secs: 1584735947
    nsecs: 292492763
  frame_id: "imu"
frame_id: ''
accelerometers: 
  x: 1.78832455549
  y: -0.0491398784831
  z: -9.64389514051
gyroscopes: 
  x: -0.00392249086872
  y: -2.45502742473e-05
  z: -0.00112812907901
magnetometers: 
  x: 0.406887084246
  y: 0.0377624183893
  z: 0.609365284443
---
header: 
  seq: 2863
  stamp: 
    secs: 1584735947
    nsecs: 304495548
  frame_id: "imu"
frame_id: ''
accelerometers: 
  x: 1.79173787107
  y: -0.0495832246367
  z: -9.642412793
gyroscopes: 
  x: -0.00386635330506
  y: -0.000143722980283
  z: -0.000436314760009
magnetometers: 
  x: 0.406645953655
  y: 0.0379838682711
  z: 0.609487652779
---
header: 
  seq: 2864
  stamp: 
    secs: 1584735947
    nsecs: 310445497
  frame_id: "imu"
frame_id: ''
accelerometers: 
  x: 1.79210115142
  y: -0.0487530254568
  z: -9.64360229505
gyroscopes: 
  x: -0.0035253460519
  y: -0.00102639663965
  z: -0.00120879767928
magnetometers: 
  x: 0.40684518218
  y: 0.0383492857218
  z: 0.609707593918
---
header: 
  seq: 2865
  stamp: 
    secs: 1584735947
    nsecs: 322491379
  frame_id: "imu"
frame_id: ''
accelerometers: 
  x: 1.79124015068
  y: -0.049448633905
  z: -9.64441068882
gyroscopes: 
  x: -0.00433506025001
  y: -0.000949342909735
  z: -0.00147101271432
magnetometers: 
  x: 0.406722128391
  y: 0.0379970483482
  z: 0.609516680241
---
header: 
  seq: 2866
  stamp: 
    secs: 1584735947
    nsecs: 346669731
  frame_id: "imu"
frame_id: ''
accelerometers: 
  x: 1.7894122046
  y: -0.0559102859335
  z: -9.64562181818
gyroscopes: 
  x: -0.00377950165421
  y: -0.00114347971976
  z: -0.00169376865961
magnetometers: 
  x: 0.406554996967
  y: 0.037663795054
  z: 0.609350323677
---
header: 
  seq: 2867
  stamp: 
    secs: 1584735947
    nsecs: 346750006
  frame_id: "imu"
frame_id: ''
accelerometers: 
  x: 1.78702516333
  y: -0.0609006963656
  z: -9.64822644772
gyroscopes: 
  x: -0.00402991566807
  y: -0.000282967463136
  z: -0.000546334078535
magnetometers: 
  x: 0.405902951956
  y: 0.0374682173133
  z: 0.609417140484
---
header: 
  seq: 2868
  stamp: 
    secs: 1584735947
    nsecs: 352500079
  frame_id: "imu"
frame_id: ''
accelerometers: 
  x: 1.78379275728
  y: -0.0638788125607
  z: -9.64635714671
gyroscopes: 
  x: -0.00493516447023
  y: -0.000193923304323
  z: -0.000881771440618
magnetometers: 
  x: 0.406031668186
  y: 0.0380499102175
  z: 0.60944288969
---
header: 
  seq: 2869
  stamp: 
    secs: 1584735947
    nsecs: 364499471
  frame_id: "imu"
frame_id: ''
accelerometers: 
  x: 1.78759755639
  y: -0.0610425753546
  z: -9.64191945653
gyroscopes: 
  x: -0.00403669290245
  y: 0.000558018335141
  z: -0.00213096267544
magnetometers: 
  x: 0.405338436365
  y: 0.0378301888704
  z: 0.609602093697
---
header: 
  seq: 2870
  stamp: 
    secs: 1584735947
    nsecs: 376518622
  frame_id: "imu"
frame_id: ''
accelerometers: 
  x: 1.78870917089
  y: -0.0577528770263
  z: -9.6458147104
gyroscopes: 
  x: -0.00325532187708
  y: -0.00194723648019
  z: -0.00128908688203
magnetometers: 
  x: 0.405920028687
  y: 0.0380049981177
  z: 0.609838426113
---
header: 
  seq: 2871
  stamp: 
    secs: 1584735947
    nsecs: 382564578
  frame_id: "imu"
frame_id: ''
accelerometers: 
  x: 1.78960217421
  y: -0.0537006972924
  z: -9.6509257698
gyroscopes: 
  x: -0.00395298562944
  y: -0.00232947198674
  z: -0.000979681266472
magnetometers: 
  x: 0.405977338552
  y: 0.0375660434365
  z: 0.610056340694
---
header: 
  seq: 2872
  stamp: 
    secs: 1584735947
    nsecs: 394508324
  frame_id: "imu"
frame_id: ''
accelerometers: 
  x: 1.78623912752
  y: -0.0526485715907
  z: -9.64616074736
gyroscopes: 
  x: -0.00442737387493
  y: -0.000132605200633
  z: -0.00172844622284
magnetometers: 
  x: 0.406115800142
  y: 0.0375502407551
  z: 0.610093176365
---
header: 
  seq: 2873
  stamp: 
    secs: 1584735947
    nsecs: 406498971
  frame_id: "imu"
frame_id: ''
accelerometers: 
  x: 1.78340141988
  y: -0.0542639343654
  z: -9.63651496713
gyroscopes: 
  x: -0.00376244587824
  y: 0.00209033186547
  z: -0.000458135618828
magnetometers: 
  x: 0.406331807375
  y: 0.0372646786273
  z: 0.61017280817
---
header: 
  seq: 2874
  stamp: 
    secs: 1584735947
    nsecs: 412495036
  frame_id: "imu"
frame_id: ''
accelerometers: 
  x: 1.78669593138
  y: -0.0520650315151
  z: -9.64034417003
gyroscopes: 
  x: -0.00457453168929
  y: -0.00248605245724
  z: -0.00130214320961
magnetometers: 
  x: 0.406259357929
  y: 0.0368502177298
  z: 0.609793365002
---
header: 
  seq: 2875
  stamp: 
    secs: 1584735947
    nsecs: 424494023
  frame_id: "imu"
frame_id: ''
accelerometers: 
  x: 1.78931941175
  y: -0.051081061979
  z: -9.65567851729
gyroscopes: 
  x: -0.00416098535061
  y: -0.00556684238836
  z: -0.00123222614639
magnetometers: 
  x: 0.40621316433
  y: 0.0351445153356
  z: 0.609913766384
---
header: 
  seq: 2876
  stamp: 
    secs: 1584735947
    nsecs: 436496230
  frame_id: "imu"
frame_id: ''
accelerometers: 
  x: 1.78800438363
  y: -0.054319614642
  z: -9.65870517163
gyroscopes: 
  x: -0.00311196781695
  y: -0.000195858243387
  z: -0.000684461323544
magnetometers: 
  x: 0.406193643808
  y: 0.0356263034046
  z: 0.609879434109
---
header: 
  seq: 2877
  stamp: 
    secs: 1584735947
    nsecs: 442490495
  frame_id: "imu"
frame_id: ''
accelerometers: 
  x: 1.79291729011
  y: -0.0612947052185
  z: -9.64071008074
gyroscopes: 
  x: -0.00397500069812
  y: 0.00559095991775
  z: -0.00147727190051
magnetometers: 
  x: 0.406487673521
  y: 0.0365353114903
  z: 0.609798491001
---
header: 
  seq: 2878
  stamp: 
    secs: 1584735947
    nsecs: 454435624
  frame_id: "imu"
frame_id: ''
accelerometers: 
  x: 1.79818719334
  y: -0.0654302249875
  z: -9.63330126579
gyroscopes: 
  x: -0.00364027009346
  y: -0.000615685770754
  z: -0.00136513670441
magnetometers: 
  x: 0.406430602074
  y: 0.037053540349
  z: 0.610307097435
---
header: 
  seq: 2879
  stamp: 
    secs: 1584735947
    nsecs: 466494922
  frame_id: "imu"
frame_id: ''
accelerometers: 
  x: 1.7917207738
  y: -0.0653050048723
  z: -9.64683294753
gyroscopes: 
  x: -0.00390140991658
  y: -0.00588971143588
  z: -0.00150836934336
magnetometers: 
  x: 0.406512469053
  y: 0.0377411879599
  z: 0.610141634941
---
header: 
  seq: 2880
  stamp: 
    secs: 1584735947
    nsecs: 472492621
  frame_id: "imu"
frame_id: ''
accelerometers: 
  x: 1.78590185839
  y: -0.0599397195461
  z: -9.65280383863
gyroscopes: 
  x: -0.00299086119048
  y: -0.000374047434889
  z: -0.00114190368913
magnetometers: 
  x: 0.40695682168
  y: 0.0379688516259
  z: 0.610056638718
---
header: 
  seq: 2881
  stamp: 
    secs: 1584735947
    nsecs: 484497766
  frame_id: "imu"
frame_id: ''
accelerometers: 
  x: 1.78831827188
  y: -0.0519545066456
  z: -9.64592518504
gyroscopes: 
  x: -0.00412377342582
  y: 0.00330741843209
  z: -0.000327237445163
magnetometers: 
  x: 0.407041072845
  y: 0.0376451872289
  z: 0.610017776489
---
header: 
  seq: 2882
  stamp: 
    secs: 1584735947
    nsecs: 496496437
  frame_id: "imu"
frame_id: ''
accelerometers: 
  x: 1.79059907629
  y: -0.0449441757924
  z: -9.63850234156
gyroscopes: 
  x: -0.00364172854461
  y: -0.000177079695277
  z: -0.00111580325756
magnetometers: 
  x: 0.406694114208
  y: 0.037720028311
  z: 0.610137104988
---
header: 
  seq: 2883
  stamp: 
    secs: 1584735947
    nsecs: 502499697
  frame_id: "imu"
frame_id: ''
accelerometers: 
  x: 1.78716369502
  y: -0.03853669707
  z: -9.64379168014
gyroscopes: 
  x: -0.00329643022269
  y: -0.00413529202342
  z: -0.000722758530173
magnetometers: 
  x: 0.406487673521
  y: 0.0377064086497
  z: 0.609868109226
---
header: 
  seq: 2884
  stamp: 
    secs: 1584735947
    nsecs: 514496213
  frame_id: "imu"
frame_id: ''
accelerometers: 
  x: 1.78724158256
  y: -0.0386105751569
  z: -9.6511525643
gyroscopes: 
  x: -0.0037897687871
  y: -0.00142097193748
  z: -0.000655599753372
magnetometers: 
  x: 0.40652692318
  y: 0.0374126285315
  z: 0.609521865845
---
header: 
  seq: 2885
  stamp: 
    secs: 1584735947
    nsecs: 526461585
  frame_id: "imu"
frame_id: ''
accelerometers: 
  x: 1.79019108002
  y: -0.0467581116128
  z: -9.64816565744
gyroscopes: 
  x: -0.00359613727778
  y: 0.00128483795561
  z: -0.000669206376188
magnetometers: 
  x: 0.40635856986
  y: 0.0375517979264
  z: 0.609589874744
---
header: 
  seq: 2886
  stamp: 
    secs: 1584735947
    nsecs: 532493968
  frame_id: "imu"
frame_id: ''
accelerometers: 
  x: 1.79563297881
  y: -0.0533001399677
  z: -9.63852455339
gyroscopes: 
  x: -0.00362384598702
  y: 0.000485897471663
  z: -0.000851040123962
magnetometers: 
  x: 0.406443715096
  y: 0.0377967022359
  z: 0.61035835743
---
header: 
  seq: 2887
  stamp: 
    secs: 1584735947
    nsecs: 544447960
  frame_id: "imu"
frame_id: ''
accelerometers: 
  x: 1.79644444132
  y: -0.0555862324778
  z: -9.64155939104
gyroscopes: 
  x: -0.00485253566876
  y: -0.00195741513744
  z: -0.000514443905558
magnetometers: 
  x: 0.40630415082
  y: 0.0376900285482
  z: 0.610582590103
---
header: 
  seq: 2888
  stamp: 
    secs: 1584735947
    nsecs: 556558839
  frame_id: "imu"
frame_id: ''
accelerometers: 
  x: 1.79358130698
  y: -0.0528398426793
  z: -9.6466798028
gyroscopes: 
  x: -0.00386860920116
  y: -0.00137807335705
  z: -0.000979607342742
magnetometers: 
  x: 0.406328886747
  y: 0.0375499390066
  z: 0.610216081142
---
header: 
  seq: 2889
  stamp: 
    secs: 1584735947
    nsecs: 568468399
  frame_id: "imu"
frame_id: ''
accelerometers: 
  x: 1.78800526041
  y: -0.0490442086895
  z: -9.64556570407
gyroscopes: 
  x: -0.00315263401717
  y: 0.00060410547303
  z: -0.00161882466637
magnetometers: 
  x: 0.406870752573
  y: 0.0372850522399
  z: 0.609883904457
---
header: 
  seq: 2890
  stamp: 
    secs: 1584735947
    nsecs: 574451881
  frame_id: "imu"
frame_id: ''
accelerometers: 
  x: 1.78238844344
  y: -0.0478373399506
  z: -9.64373322795
gyroscopes: 
  x: -0.00399750843644
  y: -0.000199107977096
  z: -0.000261258275714
magnetometers: 
  x: 0.406609594822
  y: 0.0374038144946
  z: 0.610032737255
---
header: 
  seq: 2891
  stamp: 
    secs: 1584735947
    nsecs: 586554745
  frame_id: "imu"
frame_id: ''
accelerometers: 
  x: 1.77926855785
  y: -0.0519027947247
  z: -9.64542132717
gyroscopes: 
  x: -0.00430379528552
  y: -0.00113085191697
  z: -0.00119371595792
magnetometers: 
  x: 0.406282097101
  y: 0.0374366752803
  z: 0.610056996346
---
header: 
  seq: 2892
  stamp: 
    secs: 1584735947
    nsecs: 598456423
  frame_id: "imu"
frame_id: ''
accelerometers: 
  x: 1.77879816386
  y: -0.0543896339712
  z: -9.64912135073
gyroscopes: 
  x: -0.00385033013299
  y: -0.00151385099161
  z: -0.000879647035617
magnetometers: 
  x: 0.405679047108
  y: 0.0370579734445
  z: 0.610497295856
---
header: 
  seq: 2893
  stamp: 
    secs: 1584735947
    nsecs: 604451539
  frame_id: "imu"
frame_id: ''
accelerometers: 
  x: 1.78671463608
  y: -0.0621599072131
  z: -9.64838952932
gyroscopes: 
  x: -0.00301049579866
  y: 0.00163404340856
  z: -0.00152477563825
magnetometers: 
  x: 0.406047999859
  y: 0.0371038466692
  z: 0.610431313515
---
header: 
  seq: 2894
  stamp: 
    secs: 1584735947
    nsecs: 616450176
  frame_id: "imu"
frame_id: ''
accelerometers: 
  x: 1.7962481881
  y: -0.0641038763211
  z: -9.64239467282
gyroscopes: 
  x: -0.00328149204142
  y: 0.00133834441658
  z: -0.00132927426603
magnetometers: 
  x: 0.406717956066
  y: 0.0372951775789
  z: 0.610469400883
---
header: 
  seq: 2895
  stamp: 
    secs: 1584735947
    nsecs: 628494773
  frame_id: "imu"
frame_id: ''
accelerometers: 
  x: 1.79834501425
  y: -0.0628202023193
  z: -9.64116016259
gyroscopes: 
  x: -0.00355848832987
  y: -0.00218528765254
  z: -0.000429808074841
magnetometers: 
  x: 0.406569987535
  y: 0.0373980179429
  z: 0.61012083292
---
header: 
  seq: 2896
  stamp: 
    secs: 1584735947
    nsecs: 634450450
  frame_id: "imu"
frame_id: ''
accelerometers: 
  x: 1.79242146942
  y: -0.0586738323627
  z: -9.64680898213
gyroscopes: 
  x: -0.00408363901079
  y: -0.00173231854569
  z: -0.000405844737543
magnetometers: 
  x: 0.406282633543
  y: 0.0369016602635
  z: 0.610092401505
---
header: 
  seq: 2897
  stamp: 
    secs: 1584735947
    nsecs: 646453271
  frame_id: "imu"
frame_id: ''
accelerometers: 
  x: 1.78736798542
  y: -0.0547293964527
  z: -9.6457398916
gyroscopes: 
  x: -0.00456980196759
  y: 0.000415294111008
  z: -0.00100276386365
magnetometers: 
  x: 0.406505465508
  y: 0.037354696542
  z: 0.610240459442
---
header: 
  seq: 2898
  stamp: 
    secs: 1584735947
    nsecs: 664471682
  frame_id: "imu"
frame_id: ''
accelerometers: 
  x: 1.78168584813
  y: -0.0494900207948
  z: -9.64508814969
gyroscopes: 
  x: -0.00436667120084
  y: -0.000919853278901
  z: -0.0010573634645
magnetometers: 
  x: 0.407535493374
  y: 0.0376477725804
  z: 0.610036253929
---
header: 
  seq: 2899
  stamp: 
    secs: 1584735947
    nsecs: 664589897
  frame_id: "imu"
frame_id: ''
accelerometers: 
  x: 1.77322723186
  y: -0.0473822120277
  z: -9.64599065149
gyroscopes: 
  x: -0.00443597510457
  y: -0.00224926904775
  z: -0.00152922933921
magnetometers: 
  x: 0.407504498959
  y: 0.0372088141739
  z: 0.610063314438
---
header: 
  seq: 2900
  stamp: 
    secs: 1584735947
    nsecs: 676454615
  frame_id: "imu"
frame_id: ''
accelerometers: 
  x: 1.77080146602
  y: -0.0469528852663
  z: -9.64901789035
gyroscopes: 
  x: -0.00406166817993
  y: -0.00142061023507
  z: -0.00226876139641
magnetometers: 
  x: 0.407534837723
  y: 0.0370243117213
  z: 0.61010414362
---
header: 
  seq: 2901
  stamp: 
    secs: 1584735947
    nsecs: 688451768
  frame_id: "imu"
frame_id: ''
accelerometers: 
  x: 1.77705818833
  y: -0.0502443691263
  z: -9.6476226366
gyroscopes: 
  x: -0.00419739913195
  y: 0.00124755804427
  z: -0.000902510946617
magnetometers: 
  x: 0.407798826694
  y: 0.0374477244914
  z: 0.610150396824
---
header: 
  seq: 2902
  stamp: 
    secs: 1584735947
    nsecs: 694453347
  frame_id: "imu"
frame_id: ''
accelerometers: 
  x: 1.78841325669
  y: -0.0501665820492
  z: -9.64579717474
gyroscopes: 
  x: -0.00361878750846
  y: 0.000760702008847
  z: -0.000887498783413
magnetometers: 
  x: 0.408165276051
  y: 0.0371092148125
  z: 0.610190033913
---
header: 
  seq: 2903
  stamp: 
    secs: 1584735947
    nsecs: 706451176
  frame_id: "imu"
frame_id: ''
accelerometers: 
  x: 1.79923114943
  y: -0.0519112109266
  z: -9.64493442043
gyroscopes: 
  x: -0.00439045531675
  y: -0.00133693986572
  z: -0.00049649993889
magnetometers: 
  x: 0.407607764006
  y: 0.0374401286244
  z: 0.610082030296
---
header: 
  seq: 2904
  stamp: 
    secs: 1584735947
    nsecs: 718450382
  frame_id: "imu"
frame_id: ''
accelerometers: 
  x: 1.80474465216
  y: -0.0550923525802
  z: -9.64283598685
gyroscopes: 
  x: -0.00321033294313
  y: -0.00135266361758
  z: -0.00142266135663
magnetometers: 
  x: 0.406778365374
  y: 0.0371449105442
  z: 0.609800994396
---
header: 
  seq: 2905
  stamp: 
    secs: 1584735947
    nsecs: 724442809
  frame_id: "imu"
frame_id: ''
accelerometers: 
  x: 1.8034025899
  y: -0.0564457582168
  z: -9.64078431502
gyroscopes: 
  x: -0.00380902551115
  y: -0.00113195122685
  z: -0.000148848892422
magnetometers: 
  x: 0.407010346651
  y: 0.0367981791496
  z: 0.60979372263
---
header: 
  seq: 2906
  stamp: 
    secs: 1584735947
    nsecs: 736454015
  frame_id: "imu"
frame_id: ''
accelerometers: 
  x: 1.79241153254
  y: -0.0558726619034
  z: -9.64078197693
gyroscopes: 
  x: -0.00336734415032
  y: -0.00105807499494
  z: -0.00133402366191
magnetometers: 
  x: 0.407350331545
  y: 0.0363813005388
  z: 0.609754681587
---
header: 
  seq: 2907
  stamp: 
    secs: 1584735947
    nsecs: 748498819
  frame_id: "imu"
frame_id: ''
accelerometers: 
  x: 1.78301037473
  y: -0.0513952790274
  z: -9.64010100893
gyroscopes: 
  x: -0.00373892951757
  y: -0.000838573672809
  z: -0.00106265023351
magnetometers: 
  x: 0.407258838415
  y: 0.036214273423
  z: 0.609226644039
---
header: 
  seq: 2908
  stamp: 
    secs: 1584735947
    nsecs: 760452242
  frame_id: "imu"
frame_id: ''
accelerometers: 
  x: 1.77938327027
  y: -0.0507005610617
  z: -9.64802069601
gyroscopes: 
  x: -0.0043266210705
  y: -0.0018185445806
  z: -0.000658701057546
magnetometers: 
  x: 0.407732099295
  y: 0.036399167031
  z: 0.609374761581
---
header: 
  seq: 2909
  stamp: 
    secs: 1584735947
    nsecs: 766498067
  frame_id: "imu"
frame_id: ''
accelerometers: 
  x: 1.77822781663
  y: -0.0490393726841
  z: -9.64866951531
gyroscopes: 
  x: -0.00389507762156
  y: -0.00143340136856
  z: -0.000901524501387
magnetometers: 
  x: 0.407618403435
  y: 0.0366485603154
  z: 0.609550237656
---
header: 
  seq: 2910
  stamp: 
    secs: 1584735947
    nsecs: 778512862
  frame_id: "imu"
frame_id: ''
accelerometers: 
  x: 1.78511932971
  y: -0.0502867332636
  z: -9.64505775455
gyroscopes: 
  x: -0.00277244765311
  y: 0.00121036253404
  z: -0.00117145432159
magnetometers: 
  x: 0.407350361347
  y: 0.0370833314955
  z: 0.6100461483
---
header: 
  seq: 2911
  stamp: 
    secs: 1584735947
    nsecs: 790557684
  frame_id: "imu"
frame_id: ''
accelerometers: 
  x: 1.79323716971
  y: -0.0500276074033
  z: -9.64165291454
gyroscopes: 
  x: -0.00356264063157
  y: 0.000797374115791
  z: -0.000767751422245
magnetometers: 
  x: 0.406782567501
  y: 0.0370109938085
  z: 0.610018789768
---
header: 
  seq: 2912
  stamp: 
    secs: 1584735947
    nsecs: 796548811
  frame_id: "imu"
frame_id: ''
accelerometers: 
  x: 1.79994324322
  y: -0.0486126488718
  z: -9.64403834838
gyroscopes: 
  x: -0.00343262078241
  y: -0.00182075193152
  z: -0.000872048665769
magnetometers: 
  x: 0.407193332911
  y: 0.037202257663
  z: 0.609924912453
---
header: 
  seq: 2913
  stamp: 
    secs: 1584735947
    nsecs: 808538050
  frame_id: "imu"
frame_id: ''
accelerometers: 
  x: 1.79626119371
  y: -0.053788416675
  z: -9.64716086431
gyroscopes: 
  x: -0.0021621028427
  y: -0.00131566287018
  z: -0.000875499797985
magnetometers: 
  x: 0.406912833452
  y: 0.0370872803032
  z: 0.609884858131
---
header: 
  seq: 2914
  stamp: 
    secs: 1584735947
    nsecs: 820539777
  frame_id: "imu"
frame_id: ''
accelerometers: 
  x: 1.78921039841
  y: -0.0577793403415
  z: -9.64614905692
gyroscopes: 
  x: -0.00391141837463
  y: 0.000682073761709
  z: 0.000310945499223
magnetometers: 
  x: 0.40676856041
  y: 0.0370963439345
  z: 0.61007463932
---
header: 
  seq: 2915
  stamp: 
    secs: 1584735947
    nsecs: 826495948
  frame_id: "imu"
frame_id: ''
accelerometers: 
  x: 1.78190139058
  y: -0.0612858688915
  z: -9.6402149907
gyroscopes: 
  x: -0.00523104937747
  y: -0.000986169790849
  z: -0.000956464326009
magnetometers: 
  x: 0.40701046586
  y: 0.0368198491633
  z: 0.610069036484
---
header: 
  seq: 2916
  stamp: 
    secs: 1584735947
    nsecs: 838499311
  frame_id: "imu"
frame_id: ''
accelerometers: 
  x: 1.78218809856
  y: -0.0619496117635
  z: -9.64417629554
gyroscopes: 
  x: -0.00350964162499
  y: -0.00189995102119
  z: -0.00149373873137
magnetometers: 
  x: 0.406937092543
  y: 0.0369521379471
  z: 0.610025584698
---
header: 
  seq: 2917
  stamp: 
    secs: 1584735947
    nsecs: 850497620
  frame_id: "imu"
frame_id: ''
accelerometers: 
  x: 1.7837204227
  y: -0.0583572498274
  z: -9.64674351568
gyroscopes: 
  x: -0.00369399716146
  y: -0.00186256645247
  z: -0.000695626309607
magnetometers: 
  x: 0.406684070826
  y: 0.0368920564651
  z: 0.609891295433
---
header: 
  seq: 2918
  stamp: 
    secs: 1584735947
    nsecs: 856491083
  frame_id: "imu"
frame_id: ''
accelerometers: 
  x: 1.79209779042
  y: -0.0514985521722
  z: -9.64733212923
gyroscopes: 
  x: -0.00438874866813
  y: 0.000679386081174
  z: -0.000705128069967
magnetometers: 
  x: 0.407682716846
  y: 0.0374461114407
  z: 0.610256612301
---
header: 
  seq: 2919
  stamp: 
    secs: 1584735947
    nsecs: 868474585
  frame_id: "imu"
frame_id: ''
accelerometers: 
  x: 1.797744418
  y: -0.0477412454653
  z: -9.63953928339
gyroscopes: 
  x: -0.00390109606087
  y: 0.000281299900962
  z: -0.00110155157745
magnetometers: 
  x: 0.407540798187
  y: 0.0367648676038
  z: 0.610112845898
---
header: 
  seq: 2920
  stamp: 
    secs: 1584735947
    nsecs: 880484275
  frame_id: "imu"
frame_id: ''
accelerometers: 
  x: 1.79744762701
  y: -0.0442629885952
  z: -9.63994435706
gyroscopes: 
  x: -0.00462113134563
  y: -0.00106191949453
  z: -0.000143714656588
magnetometers: 
  x: 0.406845480204
  y: 0.03708640486
  z: 0.609613180161
---
header: 
  seq: 2921
  stamp: 
    secs: 1584735947
    nsecs: 886560061
  frame_id: "imu"
frame_id: ''
accelerometers: 
  x: 1.79236257884
  y: -0.0496726701856
  z: -9.64327730088
gyroscopes: 
  x: -0.00344723695889
  y: -0.00122235901654
  z: -0.000519655470271
magnetometers: 
  x: 0.406565397978
  y: 0.0371460355818
  z: 0.609601855278
---
header: 
  seq: 2922
  stamp: 
    secs: 1584735947
    nsecs: 898540274
  frame_id: "imu"
frame_id: ''
accelerometers: 
  x: 1.79060156051
  y: -0.0520962075381
  z: -9.64279565484
gyroscopes: 
  x: -0.00488787842914
  y: -0.0008213033434
  z: -0.000571898883209
magnetometers: 
  x: 0.40672981739
  y: 0.0373916178942
  z: 0.609391093254
---
header: 
  seq: 2923
  stamp: 
    secs: 1584735947
    nsecs: 910536495
  frame_id: "imu"
frame_id: ''
accelerometers: 
  x: 1.79063210178
  y: -0.0579004459706
  z: -9.64212871536
gyroscopes: 
  x: -0.0037274339702
  y: 0.000115440940135
  z: -0.000832575082313
magnetometers: 
  x: 0.406293034554
  y: 0.0375403799117
  z: 0.60942953825
---
header: 
  seq: 2924
  stamp: 
    secs: 1584735947
    nsecs: 916539625
  frame_id: "imu"
frame_id: ''
accelerometers: 
  x: 1.78936193571
  y: -0.059297549185
  z: -9.64605611794
gyroscopes: 
  x: -0.00355218537152
  y: -0.00083573104348
  z: -0.000718414434232
magnetometers: 
  x: 0.406813800335
  y: 0.037448246032
  z: 0.609391331673
---
header: 
  seq: 2925
  stamp: 
    secs: 1584735947
    nsecs: 928547916
  frame_id: "imu"
frame_id: ''
accelerometers: 
  x: 1.78871326255
  y: -0.0568637963992
  z: -9.64802361862
gyroscopes: 
  x: -0.00471435394138
  y: -0.00116434297524
  z: -0.000829222495668
magnetometers: 
  x: 0.406647086143
  y: 0.0376282706857
  z: 0.60957211256
---
header: 
  seq: 2926
  stamp: 
    secs: 1584735947
    nsecs: 940541094
  frame_id: "imu"
frame_id: ''
accelerometers: 
  x: 1.78801329758
  y: -0.0537837770325
  z: -9.64888345032
gyroscopes: 
  x: -0.00365811819211
  y: -0.00149292231072
  z: -0.000567290117033
magnetometers: 
  x: 0.406351596117
  y: 0.0378605127335
  z: 0.609790921211
---
header: 
  seq: 2927
  stamp: 
    secs: 1584735947
    nsecs: 952535126
  frame_id: "imu"
frame_id: ''
accelerometers: 
  x: 1.79051738936
  y: -0.0547094359435
  z: -9.64064812142
gyroscopes: 
  x: -0.00479185860604
  y: 0.00163045409136
  z: -0.000278353283647
magnetometers: 
  x: 0.406441450119
  y: 0.0379513464868
  z: 0.609373867512
---
header: 
  seq: 2928
  stamp: 
    secs: 1584735947
    nsecs: 958467732
  frame_id: "imu"
frame_id: ''
accelerometers: 
  x: 1.79788718748
  y: -0.0503984271768
  z: -9.6433205555
gyroscopes: 
  x: -0.00480520026758
  y: -0.0013427247759
  z: -0.00081097317161
magnetometers: 
  x: 0.406448096037
  y: 0.0381461419165
  z: 0.60948485136
---
header: 
  seq: 2929
  stamp: 
    secs: 1584735947
    nsecs: 970555752
  frame_id: "imu"
frame_id: ''
accelerometers: 
  x: 1.79722433965
  y: -0.047855537761
  z: -9.64633376584
gyroscopes: 
  x: -0.00366649078205
  y: -0.00236333394423
  z: -0.00141669728328
magnetometers: 
  x: 0.406132012606
  y: 0.0385301448405
  z: 0.609407842159
---
header: 
  seq: 2930
  stamp: 
    secs: 1584735947
    nsecs: 982564948
  frame_id: "imu"
frame_id: ''
accelerometers: 
  x: 1.78846396396
  y: -0.0474037069069
  z: -9.64595265757
gyroscopes: 
  x: -0.00373073341325
  y: 0.000185145574505
  z: -0.000600198400207
magnetometers: 
  x: 0.406103849411
  y: 0.0397799387574
  z: 0.609371125698
---
header: 
  seq: 2931
  stamp: 
    secs: 1584735947
    nsecs: 988545586
  frame_id: "imu"
frame_id: ''
accelerometers: 
  x: 1.78294914606
  y: -0.0503155985984
  z: -9.6435263072
gyroscopes: 
  x: -0.00269822054543
  y: 0.000995838083327
  z: -0.00111490150448
magnetometers: 
  x: 0.406092971563
  y: 0.039861895144
  z: 0.609657287598
---
header: 
  seq: 2932
  stamp: 
    secs: 1584735948
    nsecs:    454248
  frame_id: "imu"
frame_id: ''
accelerometers: 
  x: 1.78265893094
  y: -0.0552821669307
  z: -9.64118062086
gyroscopes: 
  x: -0.00430348189548
  y: -0.00154565705452
  z: -0.00125726650003
magnetometers: 
  x: 0.406075686216
  y: 0.0386951602995
  z: 0.609595477581
---
header: 
  seq: 2933
  stamp: 
    secs: 1584735948
    nsecs:  12453204
  frame_id: "imu"
frame_id: ''
accelerometers: 
  x: 1.78412505797
  y: -0.0592451751104
  z: -9.64274889309
gyroscopes: 
  x: -0.00356893660501
  y: -0.00130380457267
  z: -0.000844604859594
magnetometers: 
  x: 0.406222373247
  y: 0.0379452258348
  z: 0.609275460243
---
header: 
  seq: 2934
  stamp: 
    secs: 1584735948
    nsecs:  18455604
  frame_id: "imu"
frame_id: ''
accelerometers: 
  x: 1.78740466417
  y: -0.0591080590615
  z: -9.64542132717
gyroscopes: 
  x: -0.00439167814329
  y: -0.000399633543566
  z: -0.000579740328249
magnetometers: 
  x: 0.406198829412
  y: 0.0377084575593
  z: 0.609218716621
---
header: 
  seq: 2935
  stamp: 
    secs: 1584735948
    nsecs:  30455933
  frame_id: "imu"
frame_id: ''
accelerometers: 
  x: 1.78956491094
  y: -0.0561193210077
  z: -9.64527753478
gyroscopes: 
  x: -0.00355673697777
  y: 0.000512773229275
  z: -0.000867276510689
magnetometers: 
  x: 0.40603685379
  y: 0.0377601087093
  z: 0.609076857567
---
header: 
  seq: 2936
  stamp: 
    secs: 1584735948
    nsecs:  48514549
  frame_id: "imu"
frame_id: ''
accelerometers: 
  x: 1.79341822537
  y: -0.0543000377253
  z: -9.64451122659
gyroscopes: 
  x: -0.00434027984738
  y: -0.000498498789966
  z: -0.00173216778785
magnetometers: 
  x: 0.405843853951
  y: 0.0369292534888
  z: 0.609075605869
---
header: 
  seq: 2937
  stamp: 
    secs: 1584735948
    nsecs:  54363646
  frame_id: "imu"
frame_id: ''
accelerometers: 
  x: 1.79385354805
  y: -0.0523236459187
  z: -9.64290496043
gyroscopes: 
  x: -0.00425162259489
  y: -0.000608487403952
  z: -0.00135822198354
magnetometers: 
  x: 0.406020104885
  y: 0.0364818833768
  z: 0.609013259411
---
header: 
  seq: 2938
  stamp: 
    secs: 1584735948
    nsecs:  60458500
  frame_id: "imu"
frame_id: ''
accelerometers: 
  x: 1.7918891161
  y: -0.0542182183604
  z: -9.64372679821
gyroscopes: 
  x: -0.00384204695001
  y: 5.46367082279e-05
  z: -0.00118959194515
magnetometers: 
  x: 0.406223237514
  y: 0.0370744057
  z: 0.609383106232
---
header: 
  seq: 2939
  stamp: 
    secs: 1584735948
    nsecs:  72454162
  frame_id: "imu"
frame_id: ''
accelerometers: 
  x: 1.78941308138
  y: -0.0545717490724
  z: -9.64470294977
gyroscopes: 
  x: -0.0035392777063
  y: -0.00173483218532
  z: -0.00100472976919
magnetometers: 
  x: 0.405606418848
  y: 0.037498537451
  z: 0.609504103661
---
header: 
  seq: 2940
  stamp: 
    secs: 1584735948
    nsecs:  78456432
  frame_id: "imu"
frame_id: ''
accelerometers: 
  x: 1.78871706194
  y: -0.051834044904
  z: -9.64618529728
gyroscopes: 
  x: -0.00420583458617
  y: -0.000626470660791
  z: -0.00170061714016
magnetometers: 
  x: 0.405604511499
  y: 0.0373086482286
  z: 0.609489262104
---
header: 
  seq: 2941
  stamp: 
    secs: 1584735948
    nsecs:  90456344
  frame_id: "imu"
frame_id: ''
accelerometers: 
  x: 1.78762634409
  y: -0.0526050566759
  z: -9.64424760721
gyroscopes: 
  x: -0.00365920830518
  y: -0.000877722923178
  z: -0.00107787409797
magnetometers: 
  x: 0.406070679426
  y: 0.0371785350144
  z: 0.60928940773
---
header: 
  seq: 2942
  stamp: 
    secs: 1584735948
    nsecs: 102453293
  frame_id: "imu"
frame_id: ''
accelerometers: 
  x: 1.78552381886
  y: -0.0552776551523
  z: -9.64515595423
gyroscopes: 
  x: -0.00365361524746
  y: -0.000775740365498
  z: -0.000522281741723
magnetometers: 
  x: 0.406398355961
  y: 0.0368385761976
  z: 0.609804093838
---
header: 
  seq: 2943
  stamp: 
    secs: 1584735948
    nsecs: 108457894
  frame_id: "imu"
frame_id: ''
accelerometers: 
  x: 1.7857225563
  y: -0.0521076970465
  z: -9.643761285
gyroscopes: 
  x: -0.00420157425106
  y: -0.000680953264236
  z: -0.000389146356611
magnetometers: 
  x: 0.406416535378
  y: 0.0369931198657
  z: 0.609824299812
---
header: 
  seq: 2944
  stamp: 
    secs: 1584735948
    nsecs: 120457532
  frame_id: "imu"
frame_id: ''
accelerometers: 
  x: 1.78800555267
  y: -0.05296784384
  z: -9.64365139489
gyroscopes: 
  x: -0.00428743893281
  y: -0.000410344509874
  z: -0.00118699506857
magnetometers: 
  x: 0.406265795231
  y: 0.0374129936099
  z: 0.60977602005
---
header: 
  seq: 2945
  stamp: 
    secs: 1584735948
    nsecs: 132458430
  frame_id: "imu"
frame_id: ''
accelerometers: 
  x: 1.79267865905
  y: -0.0535263636388
  z: -9.6437718064
gyroscopes: 
  x: -0.0041506420821
  y: -0.000535424624104
  z: -0.000314619392157
magnetometers: 
  x: 0.406294584274
  y: 0.0367450937629
  z: 0.610225975513
---
header: 
  seq: 2946
  stamp: 
    secs: 1584735948
    nsecs: 138458926
  frame_id: "imu"
frame_id: ''
accelerometers: 
  x: 1.79387722118
  y: -0.0501987855521
  z: -9.64318377737
gyroscopes: 
  x: -0.00379571807571
  y: -0.000954822229687
  z: -0.000964431616012
magnetometers: 
  x: 0.406012177467
  y: 0.0360729880631
  z: 0.610138833523
---
header: 
  seq: 2947
  stamp: 
    secs: 1584735948
    nsecs: 162597177
  frame_id: "imu"
frame_id: ''
accelerometers: 
  x: 1.79316892678
  y: -0.0536843809118
  z: -9.64243734292
gyroscopes: 
  x: -0.00436956621706
  y: 0.000202828610782
  z: -0.0010437379824
magnetometers: 
  x: 0.40562582016
  y: 0.0360251069069
  z: 0.609976768494
---
header: 
  seq: 2948
  stamp: 
    secs: 1584735948
    nsecs: 162709470
  frame_id: "imu"
frame_id: ''
accelerometers: 
  x: 1.78890367055
  y: -0.0530534032316
  z: -9.6434327837
gyroscopes: 
  x: -0.00349817844108
  y: -0.000780888774898
  z: -0.000160065945238
magnetometers: 
  x: 0.404855102301
  y: 0.0362959243357
  z: 0.610222280025
---
header: 
  seq: 2949
  stamp: 
    secs: 1584735948
    nsecs: 174468416
  frame_id: "imu"
frame_id: ''
accelerometers: 
  x: 1.78566235054
  y: -0.0531716821493
  z: -9.64817500979
gyroscopes: 
  x: -0.00402540527284
  y: -0.000740872113965
  z: -0.000365964719094
magnetometers: 
  x: 0.405124157667
  y: 0.0362195782363
  z: 0.610246419907
---
header: 
  seq: 2950
  stamp: 
    secs: 1584735948
    nsecs: 180563989
  frame_id: "imu"
frame_id: ''
accelerometers: 
  x: 1.78311646545
  y: -0.0549900429832
  z: -9.64607073099
gyroscopes: 
  x: -0.0035120472312
  y: -6.32539740764e-06
  z: -0.00118239352014
magnetometers: 
  x: 0.40555408597
  y: 0.0359566509724
  z: 0.609556257725
---
header: 
  seq: 2951
  stamp: 
    secs: 1584735948
    nsecs: 192564282
  frame_id: "imu"
frame_id: ''
accelerometers: 
  x: 1.7830169506
  y: -0.0536998433424
  z: -9.64274830857
gyroscopes: 
  x: -0.00415295967832
  y: 0.00063377188053
  z: -0.00150433031376
magnetometers: 
  x: 0.406022757292
  y: 0.0359353981912
  z: 0.609509110451
---
header: 
  seq: 2952
  stamp: 
    secs: 1584735948
    nsecs: 204562503
  frame_id: "imu"
frame_id: ''
accelerometers: 
  x: 1.78633893463
  y: -0.054159533276
  z: -9.64173883926
gyroscopes: 
  x: -0.00456081563607
  y: 0.001157071325
  z: -0.00030671391869
magnetometers: 
  x: 0.406214356422
  y: 0.0360759720206
  z: 0.609794974327
---
header: 
  seq: 2953
  stamp: 
    secs: 1584735948
    nsecs: 210516099
  frame_id: "imu"
frame_id: ''
accelerometers: 
  x: 1.78914624714
  y: -0.0540528443314
  z: -9.64473509847
gyroscopes: 
  x: -0.00448971660808
  y: -0.000224674207857
  z: -0.0014135944657
magnetometers: 
  x: 0.406700491905
  y: 0.036383792758
  z: 0.610063672066
---
header: 
  seq: 2954
  stamp: 
    secs: 1584735948
    nsecs: 222502423
  frame_id: "imu"
frame_id: ''
accelerometers: 
  x: 1.78890834673
  y: -0.0539873596135
  z: -9.65374082722
gyroscopes: 
  x: -0.00429079029709
  y: -0.0021682837978
  z: -0.00106653175317
magnetometers: 
  x: 0.406943976879
  y: 0.0363946594298
  z: 0.610227227211
---
header: 
  seq: 2955
  stamp: 
    secs: 1584735948
    nsecs: 234501331
  frame_id: "imu"
frame_id: ''
accelerometers: 
  x: 1.78495654036
  y: -0.0558965999014
  z: -9.6523835674
gyroscopes: 
  x: -0.00474284728989
  y: 0.00101428199559
  z: -0.0022660063114
magnetometers: 
  x: 0.406790226698
  y: 0.0366294123232
  z: 0.610173106194
---
header: 
  seq: 2956
  stamp: 
    secs: 1584735948
    nsecs: 240495514
  frame_id: "imu"
frame_id: ''
accelerometers: 
  x: 1.78792766513
  y: -0.0567007924238
  z: -9.64027519645
gyroscopes: 
  x: -0.00441002566367
  y: 0.00329285231419
  z: -0.00111753446981
magnetometers: 
  x: 0.406063884497
  y: 0.0369994044304
  z: 0.610458910465
---
header: 
  seq: 2957
  stamp: 
    secs: 1584735948
    nsecs: 252502467
  frame_id: "imu"
frame_id: ''
accelerometers: 
  x: 1.78844467474
  y: -0.0546025278032
  z: -9.6351816727
gyroscopes: 
  x: -0.0046444311738
  y: 0.00127736991271
  z: -0.0010853621643
magnetometers: 
  x: 0.406102597713
  y: 0.0376643463969
  z: 0.610763072968
---
header: 
  seq: 2958
  stamp: 
